{"id": "B8Yw_SheqPArDjOk4WL4yw", "lat": 41.40315993870497, "lon": 2.175008281074832, "heading": 3.925620620606395, "pitch": -0.0016335830126546047, "roll": 6.234695002683641, "date": "2024-08", "elevation": 32.35672378540039, "links": [{"pano": {"id": "hwYsMSRUqljT0lFOL-am6g", "lat": 41.4032250932198, "lon": 2.17509368742031, "heading": 3.9298854067760485, "pitch": -0.004090881750470718, "roll": 6.2394247767796225, "date": null, "elevation": 32.22035598754883, "links": []}, "direction": 0.7836053899306343}, {"pano": {"id": "ccYUH6WeSd8jNATfszDKsA", "lat": 41.40309583794556, "lon": 2.174923699708867, "heading": 3.9321088799701553, "pitch": -0.003003379919336861, "roll": 6.237062020260504, "date": null, "elevation": 32.47645568847656, "links": []}, "direction": 3.9254334003817632}]}
{"id": "hwYsMSRUqljT0lFOL-am6g", "lat": 41.4032250932198, "lon": 2.17509368742031, "heading": 3.9298854067760485, "pitch": -0.004090881750470718, "roll": 6.2394247767796225, "date": "2024-08", "elevation": 32.22035598754883, "links": [{"pano": {"id": "WJ17EeRAheVZ2SnaCI50Ig", "lat": 41.40328858116963, "lon": 2.175178344089448, "heading": 3.931467324463556, "pitch": -0.0016094814047893876, "roll": 6.238219430070251, "date": null, "elevation": 32.14057540893555, "links": []}, "direction": 0.783372296756225}, {"pano": {"id": "B8Yw_SheqPArDjOk4WL4yw", "lat": 41.40315993870497, "lon": 2.175008281074832, "heading": 3.925620620606395, "pitch": -0.0016335830126546047, "roll": 6.234695002683641, "date": null, "elevation": 32.35672378540039, "links": []}, "direction": 3.925197976941399}]}
{"id": "ccYUH6WeSd8jNATfszDKsA", "lat": 41.40309583794556, "lon": 2.174923699708867, "heading": 3.9321088799701553, "pitch": -0.003003379919336861, "roll": 6.237062020260504, "date": "2024-08", "elevation": 32.47645568847656, "links": [{"pano": {"id": "B8Yw_SheqPArDjOk4WL4yw", "lat": 41.40315993870497, "lon": 2.175008281074832, "heading": 3.925620620606395, "pitch": -0.0016335830126546047, "roll": 6.234695002683641, "date": null, "elevation": 32.35672378540039, "links": []}, "direction": 0.7838406802129426}, {"pano": {"id": "JpUmstlLyec61YAj0dARmQ", "lat": 41.4030319011208, "lon": 2.174838518635643, "heading": 3.9304449369210737, "pitch": 0.0006617955308846907, "roll": 6.241013086053745, "date": null, "elevation": 32.6087532043457, "links": []}, "direction": 3.9245455024743303}]}
{"id": "WJ17EeRAheVZ2SnaCI50Ig", "lat": 41.40328858116963, "lon": 2.175178344089448, "heading": 3.931467324463556, "pitch": -0.0016094814047893876, "roll": 6.238219430070251, "date": "2024-08", "elevation": 32.14057540893555, "links": [{"pano": {"id": "0WS1l9FXi8TqW_OhuY_MAg", "lat": 41.40335222740536, "lon": 2.175262700981856, "heading": 3.9306665119237683, "pitch": -0.003062102621373108, "roll": 6.240408015854079, "date": null, "elevation": 32.02175140380859, "links": []}, "direction": 0.7835194364064517}, {"pano": {"id": "hwYsMSRUqljT0lFOL-am6g", "lat": 41.4032250932198, "lon": 2.17509368742031, "heading": 3.9298854067760485, "pitch": -0.004090881750470718, "roll": 6.2394247767796225, "date": null, "elevation": 32.22035598754883, "links": []}, "direction": 3.924964950346019}]}
{"id": "JpUmstlLyec61YAj0dARmQ", "lat": 41.4030319011208, "lon": 2.174838518635643, "heading": 3.9304449369210737, "pitch": 0.0006617955308846907, "roll": 6.241013086053745, "date": "2024-08", "elevation": 32.6087532043457, "links": [{"pano": {"id": "ccYUH6WeSd8jNATfszDKsA", "lat": 41.40309583794556, "lon": 2.174923699708867, "heading": 3.9321088799701553, "pitch": -0.003003379919336861, "roll": 6.237062020260504, "date": null, "elevation": 32.47645568847656, "links": []}, "direction": 0.7829528488845374}]}
{"id": "0WS1l9FXi8TqW_OhuY_MAg", "lat": 41.40335222740536, "lon": 2.175262700981856, "heading": 3.9306665119237683, "pitch": -0.003062102621373108, "roll": 6.240408015854079, "date": "2024-08", "elevation": 32.02175140380859, "links": [{"pano": {"id": "WJ17EeRAheVZ2SnaCI50Ig", "lat": 41.40328858116963, "lon": 2.175178344089448, "heading": 3.931467324463556, "pitch": -0.0016094814047893876, "roll": 6.238219430070251, "date": null, "elevation": 32.14057540893555, "links": []}, "direction": 3.925111956838191}, {"pano": {"id": "PKydCEODpwWzZ5QgQWnaUw", "lat": 41.4034160927731, "lon": 2.175347582921124, "heading": 3.934584554519493, "pitch": -0.0008009456978413309, "roll": 6.241306566405873, "date": null, "elevation": 31.8683910369873, "links": []}, "direction": 0.7838470052205316}]}
{"id": "PKydCEODpwWzZ5QgQWnaUw", "lat": 41.4034160927731, "lon": 2.175347582921124, "heading": 3.934584554519493, "pitch": -0.0008009456978413309, "roll": 6.241306566405873, "date": "2024-08", "elevation": 31.8683910369873, "links": [{"pano": {"id": "jk9t3J9AHhcHZG585DA7vQ", "lat": 41.40348121279328, "lon": 2.17543478953245, "heading": 3.9253772076827627, "pitch": -0.0008771121050175971, "roll": 6.237814096952342, "date": null, "elevation": 31.79611206054688, "links": []}, "direction": 0.7858720063344007}, {"pano": {"id": "0WS1l9FXi8TqW_OhuY_MAg", "lat": 41.40335222740536, "lon": 2.175262700981856, "heading": 3.9306665119237683, "pitch": -0.003062102621373108, "roll": 6.240408015854079, "date": null, "elevation": 32.02175140380859, "links": []}, "direction": 3.9254395256522696}]}
{"id": "jk9t3J9AHhcHZG585DA7vQ", "lat": 41.40348121279328, "lon": 2.17543478953245, "heading": 3.9253772076827627, "pitch": -0.0008771121050175971, "roll": 6.237814096952342, "date": "2024-08", "elevation": 31.79611206054688, "links": [{"pano": {"id": "OQhmDa7sFtHyVm8L346FvQ", "lat": 41.40354773167039, "lon": 2.175520721577787, "heading": 3.9150795626957526, "pitch": 0.0009281116398926145, "roll": 6.257643461796856, "date": null, "elevation": 31.69524002075195, "links": []}, "direction": 0.7942190189809815}, {"pano": {"id": "PKydCEODpwWzZ5QgQWnaUw", "lat": 41.4034160927731, "lon": 2.175347582921124, "heading": 3.934584554519493, "pitch": -0.0008009456978413309, "roll": 6.241306566405873, "date": null, "elevation": 31.8683910369873, "links": []}, "direction": 3.9274645933451664}]}
{"id": "OQhmDa7sFtHyVm8L346FvQ", "lat": 41.40354773167039, "lon": 2.175520721577787, "heading": 3.9150795626957526, "pitch": 0.0009281116398926145, "roll": 6.257643461796856, "date": "2024-08", "elevation": 31.69524002075195, "links": [{"pano": {"id": "jk9t3J9AHhcHZG585DA7vQ", "lat": 41.40348121279328, "lon": 2.17543478953245, "heading": 3.9253772076827627, "pitch": -0.0008771121050175971, "roll": 6.237814096952342, "date": null, "elevation": 31.79611206054688, "links": []}, "direction": 3.9358117391498015}, {"pano": {"id": "S_ip-AcnAFqSpD2Z8Dn7fw", "lat": 41.40361320640014, "lon": 2.175605304065298, "heading": 3.911146073765706, "pitch": 0.005743639522973893, "roll": 6.256930799889149, "date": null, "elevation": 31.62727928161621, "links": []}, "direction": 0.7940088955709742}]}
{"id": "moy3EWiKMN8DvB9Zu3kITg", "lat": 51.50587461400724, "lon": -0.124405316283538, "heading": 3.4569215792995354, "pitch": 0.002539057783281546, "roll": 6.269207972514415, "date": "2021-06", "elevation": 6.0685133934021, "links": [{"pano": {"id": "WHEISs1dXrFBYZzhPEUoEA", "lat": 51.5059656860041, "lon": -0.1243585422241838, "heading": 3.4176564648196246, "pitch": 0.005492503432179421, "roll": 6.247494687514781, "date": null, "elevation": 6.060649394989014, "links": []}, "direction": 0.24848033662117472}, {"pano": {"id": "ZGRpaa6Ra5jN781TjQTcDQ", "lat": 51.50578683222174, "lon": -0.124450131455934, "heading": 3.451850387951807, "pitch": 0.005167597779189754, "roll": 6.261956717498347, "date": null, "elevation": 6.782119274139404, "links": []}, "direction": 3.4947232867604465}]}
{"id": "WHEISs1dXrFBYZzhPEUoEA", "lat": 51.5059656860041, "lon": -0.1243585422241838, "heading": 3.4176564648196246, "pitch": 0.005492503432179421, "roll": 6.247494687514781, "date": "2021-06", "elevation": 6.060649394989014, "links": [{"pano": {"id": "KX24kYPFWLDuz1GjHPdysg", "lat": 51.50601366640244, "lon": -0.1243366908146132, "heading": 3.4014596517019813, "pitch": -0.0025607625461656915, "roll": 6.23959202329608, "date": null, "elevation": 6.090769290924072, "links": []}, "direction": 0.2485900089238155}, {"pano": {"id": "moy3EWiKMN8DvB9Zu3kITg", "lat": 51.50587461400724, "lon": -0.124405316283538, "heading": 3.4569215792995354, "pitch": 0.002539057783281546, "roll": 6.269207972514415, "date": null, "elevation": 6.0685133934021, "links": []}, "direction": 3.3900730401452375}]}
{"id": "ZGRpaa6Ra5jN781TjQTcDQ", "lat": 51.50578683222174, "lon": -0.124450131455934, "heading": 3.451850387951807, "pitch": 0.005167597779189754, "roll": 6.261956717498347, "date": "2021-06", "elevation": 6.782119274139404, "links": [{"pano": {"id": "moy3EWiKMN8DvB9Zu3kITg", "lat": 51.50587461400724, "lon": -0.124405316283538, "heading": 3.4569215792995354, "pitch": 0.002539057783281546, "roll": 6.269207972514415, "date": null, "elevation": 6.0685133934021, "links": []}, "direction": 0.35313069974968103}, {"pano": {"id": "arlXXkEyuYLpTgdCStavQA", "lat": 51.50569953787963, "lon": -0.1244891183798517, "heading": 3.379289900891507, "pitch": -0.004559331786215656, "roll": 6.2495778121194405, "date": null, "elevation": 6.071089267730713, "links": []}, "direction": 3.2839809581158605}]}
{"id": "KX24kYPFWLDuz1GjHPdysg", "lat": 51.50601366640244, "lon": -0.1243366908146132, "heading": 3.4014596517019813, "pitch": -0.0025607625461656915, "roll": 6.23959202329608, "date": "2021-06", "elevation": 6.090769290924072, "links": [{"pano": {"id": "WHEISs1dXrFBYZzhPEUoEA", "lat": 51.5059656860041, "lon": -0.1243585422241838, "heading": 3.4176564648196246, "pitch": 0.005492503432179421, "roll": 6.247494687514781, "date": null, "elevation": 6.060649394989014, "links": []}, "direction": 3.3901827623821497}]}
{"id": "arlXXkEyuYLpTgdCStavQA", "lat": 51.50569953787963, "lon": -0.1244891183798517, "heading": 3.379289900891507, "pitch": -0.004559331786215656, "roll": 6.2495778121194405, "date": "2021-06", "elevation": 6.071089267730713, "links": [{"pano": {"id": "ZGRpaa6Ra5jN781TjQTcDQ", "lat": 51.50578683222174, "lon": -0.124450131455934, "heading": 3.451850387951807, "pitch": 0.005167597779189754, "roll": 6.261956717498347, "date": null, "elevation": 6.782119274139404, "links": []}, "direction": 0.14238823794704028}, {"pano": {"id": "9tLZzTNfXMty6H8sSx5_KQ", "lat": 51.50561064410238, "lon": -0.1245239719905625, "heading": 3.387515340234326, "pitch": 0.002352370190866991, "roll": 6.261697325608173, "date": null, "elevation": 6.115443229675293, "links": []}, "direction": 3.389671968085072}]}
{"id": "9tLZzTNfXMty6H8sSx5_KQ", "lat": 51.50561064410238, "lon": -0.1245239719905625, "heading": 3.387515340234326, "pitch": 0.002352370190866991, "roll": 6.261697325608173, "date": "2021-06", "elevation": 6.115443229675293, "links": [{"pano": {"id": "arlXXkEyuYLpTgdCStavQA", "lat": 51.50569953787963, "lon": -0.1244891183798517, "heading": 3.379289900891507, "pitch": -0.004559331786215656, "roll": 6.2495778121194405, "date": null, "elevation": 6.071089267730713, "links": []}, "direction": 0.24807934778479288}, {"pano": {"id": "8N8PdqUR7bnQNN4aEEoabQ", "lat": 51.50552303203777, "lon": -0.124560266238433, "heading": 3.4002540386765028, "pitch": 0.009815745987759552, "roll": 6.257014955779595, "date": null, "elevation": 6.078046321868896, "links": []}, "direction": 3.3901401518047085}]}
{"id": "8N8PdqUR7bnQNN4aEEoabQ", "lat": 51.50552303203777, "lon": -0.124560266238433, "heading": 3.4002540386765028, "pitch": 0.009815745987759552, "roll": 6.257014955779595, "date": "2021-06", "elevation": 6.078046321868896, "links": [{"pano": {"id": "9tLZzTNfXMty6H8sSx5_KQ", "lat": 51.50561064410238, "lon": -0.1245239719905625, "heading": 3.387515340234326, "pitch": 0.002352370190866991, "roll": 6.261697325608173, "date": null, "elevation": 6.115443229675293, "links": []}, "direction": 0.24854749821491515}, {"pano": {"id": "4m3PvjfKWJsoe8s3426byg", "lat": 51.50543605726792, "lon": -0.1246006890755603, "heading": 3.425424373087168, "pitch": 0.023335949051819325, "roll": 6.263680315355846, "date": null, "elevation": 6.012574195861816, "links": []}, "direction": 3.3901396191724906}]}
{"id": "4m3PvjfKWJsoe8s3426byg", "lat": 51.50543605726792, "lon": -0.1246006890755603, "heading": 3.425424373087168, "pitch": 0.023335949051819325, "roll": 6.263680315355846, "date": "2021-06", "elevation": 6.012574195861816, "links": [{"pano": {"id": "8N8PdqUR7bnQNN4aEEoabQ", "lat": 51.50552303203777, "lon": -0.124560266238433, "heading": 3.4002540386765028, "pitch": 0.009815745987759552, "roll": 6.257014955779595, "date": null, "elevation": 6.078046321868896, "links": []}, "direction": 0.24854691564842674}, {"pano": {"id": "uaE7q6nrEX7XZN7IoHy2pg", "lat": 51.50530360064823, "lon": -0.1246516718935454, "heading": 3.3702591216350477, "pitch": 0.005304617417274331, "roll": 6.252782127543024, "date": null, "elevation": 6.617014408111572, "links": []}, "direction": 3.470231525795533}]}
{"id": "uaE7q6nrEX7XZN7IoHy2pg", "lat": 51.50530360064823, "lon": -0.1246516718935454, "heading": 3.3702591216350477, "pitch": 0.005304617417274331, "roll": 6.252782127543024, "date": "2021-06", "elevation": 6.617014408111572, "links": [{"pano": {"id": "zq-ZVcjx9dwwT2yD0qlsyg", "lat": 51.50521567016923, "lon": -0.1246860804415089, "heading": 3.377653921033872, "pitch": 0.00899123131427102, "roll": 6.264640651244928, "date": null, "elevation": 6.627120971679688, "links": []}, "direction": 3.3400061442839672}, {"pano": {"id": "4m3PvjfKWJsoe8s3426byg", "lat": 51.50543605726792, "lon": -0.1246006890755603, "heading": 3.425424373087168, "pitch": 0.023335949051819325, "roll": 6.263680315355846, "date": null, "elevation": 6.012574195861816, "links": []}, "direction": 0.32863877233719935}]}
{"id": "4X1Edd912Q9cf_U7qg4mtQ", "lat": 51.55939719185517, "lon": -0.1755335495067346, "heading": 2.476385347032602, "pitch": 0.1174283598415179, "roll": 0.008374253351551269, "date": "2019-05", "elevation": 110.756950378418, "links": [{"pano": {"id": "evPTomdYzUCkj73pvAuADg", "lat": 51.55915118097283, "lon": -0.1751641500870617, "heading": 0.9973489679656853, "pitch": -0.006501974643373956, "roll": 0.07477356560377636, "date": null, "elevation": 107.0521087646484, "links": []}, "direction": 2.388896776797973}, {"pano": {"id": "giAeSr33xodsD8P601x_nQ", "lat": 51.55943950902191, "lon": -0.1755742089454752, "heading": 2.3521334358460826, "pitch": 0.1003917188741175, "roll": 6.243694889271454, "date": null, "elevation": 111.3091278076172, "links": []}, "direction": 5.481582873813442}, {"pano": {"id": "xPNqF1NqtaNscV4RxeSOcw", "lat": 51.55915232095067, "lon": -0.1751531820111628, "heading": 1.0097577007488003, "pitch": -0.014573882749349624, "roll": 0.07496537978128932, "date": null, "elevation": 107.1109085083008, "links": []}, "direction": 2.3550485319752843}]}
{"id": "evPTomdYzUCkj73pvAuADg", "lat": 51.55915118097283, "lon": -0.1751641500870617, "heading": 0.9973489679656853, "pitch": -0.006501974643373956, "roll": 0.07477356560377636, "date": "2019-05", "elevation": 107.0521087646484, "links": [{"pano": {"id": "4X1Edd912Q9cf_U7qg4mtQ", "lat": 51.55939719185517, "lon": -0.1755335495067346, "heading": 2.476385347032602, "pitch": 0.1174283598415179, "roll": 0.008374253351551269, "date": null, "elevation": 110.756950378418, "links": []}, "direction": 5.530489696703876}, {"pano": {"id": "XsMjkcLv3dadc5Spu5Y9IQ", "lat": 51.55914471785203, "lon": -0.1751925371664515, "heading": 3.540221796087797, "pitch": 0.02575063721219417, "roll": 6.190724082557561, "date": null, "elevation": 107.2074508666992, "links": []}, "direction": 4.103770118566156}]}
{"id": "giAeSr33xodsD8P601x_nQ", "lat": 51.55943950902191, "lon": -0.1755742089454752, "heading": 2.3521334358460826, "pitch": 0.1003917188741175, "roll": 6.243694889271454, "date": "2019-05", "elevation": 111.3091278076172, "links": [{"pano": {"id": "JJiUdgMfNkxEBDSQABKzjg", "lat": 51.55950106755807, "lon": -0.1756829116878995, "heading": 2.3335608167199786, "pitch": 0.11101546793660709, "roll": 6.280588725116759, "date": null, "elevation": 112.3169250488281, "links": []}, "direction": 5.438534472688965}, {"pano": {"id": "4X1Edd912Q9cf_U7qg4mtQ", "lat": 51.55939719185517, "lon": -0.1755335495067346, "heading": 2.476385347032602, "pitch": 0.1174283598415179, "roll": 0.008374253351551269, "date": null, "elevation": 110.756950378418, "links": []}, "direction": 2.3399904865397576}, {"pano": {"id": "y2GskDnFhGUkAIAPBZ9jqQ", "lat": 51.55937143891172, "lon": -0.1755800779526387, "heading": 3.985010710811817, "pitch": -0.04697469951958066, "roll": 6.168174564975643, "date": null, "elevation": 110.6244506835938, "links": []}, "direction": 3.056904663557491}]}
{"id": "xPNqF1NqtaNscV4RxeSOcw", "lat": 51.55915232095067, "lon": -0.1751531820111628, "heading": 1.0097577007488003, "pitch": -0.014573882749349624, "roll": 0.07496537978128932, "date": "2019-05", "elevation": 107.1109085083008, "links": [{"pano": {"id": "htf3cqoQDoxjzvV2tTbv_w", "lat": 51.55909090081629, "lon": -0.1750592373695887, "heading": 5.506542019549665, "pitch": -0.08904638631427093, "roll": 6.184345279114604, "date": null, "elevation": 106.0564651489258, "links": []}, "direction": 2.3453927088109836}, {"pano": {"id": "4X1Edd912Q9cf_U7qg4mtQ", "lat": 51.55939719185517, "lon": -0.1755335495067346, "heading": 2.476385347032602, "pitch": 0.1174283598415179, "roll": 0.008374253351551269, "date": null, "elevation": 110.756950378418, "links": []}, "direction": 5.496641451881186}]}
{"id": "XsMjkcLv3dadc5Spu5Y9IQ", "lat": 51.55914471785203, "lon": -0.1751925371664515, "heading": 3.540221796087797, "pitch": 0.02575063721219417, "roll": 6.190724082557561, "date": "2019-05", "elevation": 107.2074508666992, "links": [{"pano": {"id": "vNA2WwsevxGEZq0FQPC1YA", "lat": 51.55907731024404, "lon": -0.1752926901171858, "heading": 3.9477584134837884, "pitch": -0.0485792540763534, "roll": 6.20814115608668, "date": null, "elevation": 107.3920516967773, "links": []}, "direction": 3.937548120180533}, {"pano": {"id": "evPTomdYzUCkj73pvAuADg", "lat": 51.55915118097283, "lon": -0.1751641500870617, "heading": 0.9973489679656853, "pitch": -0.006501974643373956, "roll": 0.07477356560377636, "date": null, "elevation": 107.0521087646484, "links": []}, "direction": 0.9621774649763631}]}
{"id": "JJiUdgMfNkxEBDSQABKzjg", "lat": 51.55950106755807, "lon": -0.1756829116878995, "heading": 2.3335608167199786, "pitch": 0.11101546793660709, "roll": 6.280588725116759, "date": "2019-05", "elevation": 112.3169250488281, "links": [{"pano": {"id": "giAeSr33xodsD8P601x_nQ", "lat": 51.55943950902191, "lon": -0.1755742089454752, "heading": 2.3521334358460826, "pitch": 0.1003917188741175, "roll": 6.243694889271454, "date": null, "elevation": 111.3091278076172, "links": []}, "direction": 2.2969418190991724}, {"pano": {"id": "f69fopL10EHTAzeQoUwdow", "lat": 51.55956215026702, "lon": -0.1757877437270132, "heading": 2.3029794716064904, "pitch": 0.12014345257285368, "roll": 6.271440766772338, "date": null, "elevation": 113.2647476196289, "links": []}, "direction": 5.435308851976661}]}
{"id": "y2GskDnFhGUkAIAPBZ9jqQ", "lat": 51.55937143891172, "lon": -0.1755800779526387, "heading": 3.985010710811817, "pitch": -0.04697469951958066, "roll": 6.168174564975643, "date": "2019-05", "elevation": 110.6244506835938, "links": [{"pano": {"id": "0j2g_G8AnmOWvWzXygm_fA", "lat": 51.55928259542816, "lon": -0.175630257513968, "heading": 3.4461709306111032, "pitch": 0.00390139783891158, "roll": 6.200683772402239, "date": null, "elevation": 110.5978164672852, "links": []}, "direction": 3.4697470967932476}, {"pano": {"id": "giAeSr33xodsD8P601x_nQ", "lat": 51.55943950902191, "lon": -0.1755742089454752, "heading": 2.3521334358460826, "pitch": 0.1003917188741175, "roll": 6.243694889271454, "date": null, "elevation": 111.3091278076172, "links": []}, "direction": 6.198497317147285}]}
{"id": "htf3cqoQDoxjzvV2tTbv_w", "lat": 51.55909090081629, "lon": -0.1750592373695887, "heading": 5.506542019549665, "pitch": -0.08904638631427093, "roll": 6.184345279114604, "date": "2019-05", "elevation": 106.0564651489258, "links": [{"pano": {"id": "Q215igMRL8BMPCMeRRoztQ", "lat": 51.55917818884004, "lon": -0.1750831748775776, "heading": 1.05380132517264, "pitch": -0.029747376218130585, "roll": 0.06124998365408356, "date": null, "elevation": 107.0982894897461, "links": []}, "direction": 6.100900452679152}, {"pano": {"id": "xPNqF1NqtaNscV4RxeSOcw", "lat": 51.55915232095067, "lon": -0.1751531820111628, "heading": 1.0097577007488003, "pitch": -0.014573882749349624, "roll": 0.07496537978128932, "date": null, "elevation": 107.1109085083008, "links": []}, "direction": 5.486985362400777}, {"pano": {"id": "xFnTMNW2fR8R66O3Qr4XKQ", "lat": 51.55907704931427, "lon": -0.1750366603391779, "heading": 5.494430495544202, "pitch": -0.0807165510567211, "roll": 6.18966947076589, "date": null, "elevation": 105.8678741455078, "links": []}, "direction": 2.375151137147638}]}
{"id": "vNA2WwsevxGEZq0FQPC1YA", "lat": 51.55907731024404, "lon": -0.1752926901171858, "heading": 3.9477584134837884, "pitch": -0.0485792540763534, "roll": 6.20814115608668, "date": "2019-05", "elevation": 107.3920516967773, "links": [{"pano": {"id": "XsMjkcLv3dadc5Spu5Y9IQ", "lat": 51.55914471785203, "lon": -0.1751925371664515, "heading": 3.540221796087797, "pitch": 0.02575063721219417, "roll": 6.190724082557561, "date": null, "elevation": 107.2074508666992, "links": []}, "direction": 0.795955599748795}, {"pano": {"id": "tL2sOX04gE0u_1DLHbOh3Q", "lat": 51.55903602138575, "lon": -0.1753699769787002, "heading": 0.7977875882626603, "pitch": 0.04101960500605448, "roll": 0.0362477696096073, "date": null, "elevation": 107.5722808837891, "links": []}, "direction": 3.9601005672396514}]}
{"id": "VYXrP0940UGhMXl5jwzDlQ", "lat": 59.98793308484274, "lon": 30.32966919087695, "heading": 1.5166991360979536, "pitch": 0.002862631855726173, "roll": 6.275535643264444, "date": "2019-06", "elevation": 7.290212631225586, "links": [{"pano": {"id": "zMgmttD02fy9TIx39pkjFw", "lat": 59.98795301170192, "lon": 30.32991770038862, "heading": 1.384714070896117, "pitch": -0.0018255969272493178, "roll": 6.275559079082035, "date": null, "elevation": 7.289559364318848, "links": []}, "direction": 1.3769956974248494}, {"pano": {"id": "cWEeN9V1-8wDV_6VWPpP5Q", "lat": 59.98793411874607, "lon": 30.32958226336765, "heading": 1.980826461919529, "pitch": 0.015836753738265198, "roll": 0.0023786579835098644, "date": null, "elevation": 7.358647346496582, "links": []}, "direction": 4.518757994376081}]}
{"id": "zMgmttD02fy9TIx39pkjFw", "lat": 59.98795301170192, "lon": 30.32991770038862, "heading": 1.384714070896117, "pitch": -0.0018255969272493178, "roll": 6.275559079082035, "date": "2019-06", "elevation": 7.289559364318848, "links": [{"pano": {"id": "VYXrP0940UGhMXl5jwzDlQ", "lat": 59.98793308484274, "lon": 30.32966919087695, "heading": 1.5166991360979536, "pitch": 0.002862631855726173, "roll": 6.275535643264444, "date": null, "elevation": 7.290212631225586, "links": []}, "direction": 4.518588084698534}, {"pano": {"id": "qWQRuFCWbRzBqLP2BrSeLQ", "lat": 59.98796242080835, "lon": 30.33001697618335, "heading": 1.3708874711486436, "pitch": 0.004822052627751973, "roll": 0.003326268695934579, "date": null, "elevation": 7.299545288085938, "links": []}, "direction": 1.3768738578049782}]}
{"id": "cWEeN9V1-8wDV_6VWPpP5Q", "lat": 59.98793411874607, "lon": 30.32958226336765, "heading": 1.980826461919529, "pitch": 0.015836753738265198, "roll": 0.0023786579835098644, "date": "2019-06", "elevation": 7.358647346496582, "links": [{"pano": {"id": "hQ2YYF8M2qh5SAh20U-HkQ", "lat": 59.98794637096424, "lon": 30.32953198414369, "heading": 2.4422904934929717, "pitch": 0.02255604232658962, "roll": 0.02128073146255093, "date": null, "elevation": 7.382114887237549, "links": []}, "direction": 4.5195841069462235}, {"pano": {"id": "VYXrP0940UGhMXl5jwzDlQ", "lat": 59.98793308484274, "lon": 30.32966919087695, "heading": 1.5166991360979536, "pitch": 0.002862631855726173, "roll": 6.275535643264444, "date": null, "elevation": 7.290212631225586, "links": []}, "direction": 1.3771653407862874}]}
{"id": "qWQRuFCWbRzBqLP2BrSeLQ", "lat": 59.98796242080835, "lon": 30.33001697618335, "heading": 1.3708874711486436, "pitch": 0.004822052627751973, "roll": 0.003326268695934579, "date": "2019-06", "elevation": 7.299545288085938, "links": [{"pano": {"id": "zMgmttD02fy9TIx39pkjFw", "lat": 59.98795301170192, "lon": 30.32991770038862, "heading": 1.384714070896117, "pitch": -0.0018255969272493178, "roll": 6.275559079082035, "date": null, "elevation": 7.289559364318848, "links": []}, "direction": 4.518466644552826}, {"pano": {"id": "mNTy30CT232_-8pxvqshYQ", "lat": 59.98798493058603, "lon": 30.33024103306999, "heading": 1.3681690494659453, "pitch": -0.0025751436160521193, "roll": 6.280409228059288, "date": null, "elevation": 7.403800010681152, "links": []}, "direction": 1.3770432348503072}]}
{"id": "hQ2YYF8M2qh5SAh20U-HkQ", "lat": 59.98794637096424, "lon": 30.32953198414369, "heading": 2.4422904934929717, "pitch": 0.02255604232658962, "roll": 0.02128073146255093, "date": "2019-06", "elevation": 7.382114887237549, "links": [{"pano": {"id": "qBjAwM6x33RmaIXw5HOz2A", "lat": 59.98797081028858, "lon": 30.32949718989572, "heading": 2.76812718759973, "pitch": 0.012116717169588015, "roll": 0.008734857326566958, "date": null, "elevation": 7.388875484466553, "links": []}, "direction": 5.773907946659298}, {"pano": {"id": "cWEeN9V1-8wDV_6VWPpP5Q", "lat": 59.98793411874607, "lon": 30.32958226336765, "heading": 1.980826461919529, "pitch": 0.015836753738265198, "roll": 0.0023786579835098644, "date": null, "elevation": 7.358647346496582, "links": []}, "direction": 1.3779913201983756}]}
{"id": "mNTy30CT232_-8pxvqshYQ", "lat": 59.98798493058603, "lon": 30.33024103306999, "heading": 1.3681690494659453, "pitch": -0.0025751436160521193, "roll": 6.280409228059288, "date": "2019-06", "elevation": 7.403800010681152, "links": [{"pano": {"id": "7i1rmzK0A2Ok4YOGbisYXw", "lat": 59.98800587453064, "lon": 30.33039497313601, "heading": 1.259985986506692, "pitch": -0.005996373510422413, "roll": 6.269860446981484, "date": null, "elevation": 7.49293327331543, "links": []}, "direction": 1.3763171239790972}, {"pano": {"id": "qWQRuFCWbRzBqLP2BrSeLQ", "lat": 59.98796242080835, "lon": 30.33001697618335, "heading": 1.3708874711486436, "pitch": 0.004822052627751973, "roll": 0.003326268695934579, "date": null, "elevation": 7.299545288085938, "links": []}, "direction": 4.518636021598155}]}
{"id": "qBjAwM6x33RmaIXw5HOz2A", "lat": 59.98797081028858, "lon": 30.32949718989572, "heading": 2.76812718759973, "pitch": 0.012116717169588015, "roll": 0.008734857326566958, "date": "2019-06", "elevation": 7.388875484466553, "links": [{"pano": {"id": "us6fe0GHm0WWVNUo2SMWow", "lat": 59.98807411897592, "lon": 30.32943937512613, "heading": 2.9086123972108275, "pitch": 0.007844340990828397, "roll": 0.0318427139131021, "date": null, "elevation": 7.372121810913086, "links": []}, "direction": 6.072334854194743}, {"pano": {"id": "hQ2YYF8M2qh5SAh20U-HkQ", "lat": 59.98794637096424, "lon": 30.32953198414369, "heading": 2.4422904934929717, "pitch": 0.02255604232658962, "roll": 0.02128073146255093, "date": null, "elevation": 7.382114887237549, "links": []}, "direction": 2.6323152930695044}]}
{"id": "7i1rmzK0A2Ok4YOGbisYXw", "lat": 59.98800587453064, "lon": 30.33039497313601, "heading": 1.259985986506692, "pitch": -0.005996373510422413, "roll": 6.269860446981484, "date": "2019-06", "elevation": 7.49293327331543, "links": [{"pano": {"id": "mNTy30CT232_-8pxvqshYQ", "lat": 59.98798493058603, "lon": 30.33024103306999, "heading": 1.3681690494659453, "pitch": -0.0025751436160521193, "roll": 6.280409228059288, "date": null, "elevation": 7.403800010681152, "links": []}, "direction": 4.517910043884999}, {"pano": {"id": "wMmXd0YNtyt7k7h9c2PzOg", "lat": 59.9880391466607, "lon": 30.33059351089837, "heading": 1.2611078431158877, "pitch": -0.005532850322694121, "roll": 6.278410791977293, "date": null, "elevation": 7.58976936340332, "links": []}, "direction": 1.3696023627646259}]}
{"id": "us6fe0GHm0WWVNUo2SMWow", "lat": 59.98807411897592, "lon": 30.32943937512613, "heading": 2.9086123972108275, "pitch": 0.007844340990828397, "roll": 0.0318427139131021, "date": "2019-06", "elevation": 7.372121810913086, "links": [{"pano": {"id": "9ZM5Lm0vt3xXy_EW2MfAuw", "lat": 59.98820806309946, "lon": 30.32937780215331, "heading": 2.9156878835949502, "pitch": 0.002000167136704012, "roll": 0.037802830981996605, "date": null, "elevation": 7.360875606536865, "links": []}, "direction": 6.071948695836681}, {"pano": {"id": "qBjAwM6x33RmaIXw5HOz2A", "lat": 59.98797081028858, "lon": 30.32949718989572, "heading": 2.76812718759973, "pitch": 0.012116717169588015, "roll": 0.008734857326566958, "date": null, "elevation": 7.388875484466553, "links": []}, "direction": 2.93074220060495}]}
{"id": "-zfWGzsQiMu6vN4gxEJBbQ", "lat": 47.6200876507436, "lon": -122.1980614007414, "heading": 1.568981781986171, "pitch": -0.034228411068297916, "roll": 6.270924113520862, "date": "2019-08", "elevation": 55.15364837646484, "links": [{"pano": {"id": "ORxLdHyw_H6Ohc9w_XBhPA", "lat": 47.62008709635654, "lon": -122.1979331245225, "heading": 1.5714388144078781, "pitch": -0.10315980851114585, "roll": 0.0032487111511928014, "date": null, "elevation": 55.837890625, "links": []}, "direction": 1.5750720319250189}, {"pano": {"id": "zQp61vont5NW88z_E_a77Q", "lat": 47.620088019687, "lon": -122.1981931992286, "heading": 1.5686753853027575, "pitch": -0.018895527408275707, "roll": 6.271034368389991, "date": null, "elevation": 54.9477424621582, "links": []}, "direction": 4.715870264561642}]}
{"id": "ORxLdHyw_H6Ohc9w_XBhPA", "lat": 47.62008709635654, "lon": -122.1979331245225, "heading": 1.5714388144078781, "pitch": -0.10315980851114585, "roll": 0.0032487111511928014, "date": "2019-08", "elevation": 55.837890625, "links": [{"pano": {"id": "w498fbHqvBZn9mEU1uEHkg", "lat": 47.62008645239518, "lon": -122.1978030015998, "heading": 1.5733476351191924, "pitch": -0.11329353593306087, "roll": 6.282956275325839, "date": null, "elevation": 56.95516967773438, "links": []}, "direction": 1.5753529954200223}, {"pano": {"id": "-zfWGzsQiMu6vN4gxEJBbQ", "lat": 47.6200876507436, "lon": -122.1980614007414, "heading": 1.568981781986171, "pitch": -0.034228411068297916, "roll": 6.270924113520862, "date": null, "elevation": 55.15364837646484, "links": []}, "direction": 4.716664951830921}]}
{"id": "zQp61vont5NW88z_E_a77Q", "lat": 47.620088019687, "lon": -122.1981931992286, "heading": 1.5686753853027575, "pitch": -0.018895527408275707, "roll": 6.271034368389991, "date": "2019-08", "elevation": 54.9477424621582, "links": [{"pano": {"id": "WQ3R_OSFU073VVFt_73k0A", "lat": 47.62008836173555, "lon": -122.1983333438844, "heading": 1.570452912172331, "pitch": -0.134084967721364, "roll": 6.274618450585019, "date": null, "elevation": 54.07083129882812, "links": []}, "direction": 4.716640983381111}, {"pano": {"id": "-zfWGzsQiMu6vN4gxEJBbQ", "lat": 47.6200876507436, "lon": -122.1980614007414, "heading": 1.568981781986171, "pitch": -0.034228411068297916, "roll": 6.270924113520862, "date": null, "elevation": 55.15364837646484, "links": []}, "direction": 1.574277877287957}]}
{"id": "w498fbHqvBZn9mEU1uEHkg", "lat": 47.62008645239518, "lon": -122.1978030015998, "heading": 1.5733476351191924, "pitch": -0.11329353593306087, "roll": 6.282956275325839, "date": "2019-08", "elevation": 56.95516967773438, "links": [{"pano": {"id": "hB_tEzayJJi-SU4npftGkA", "lat": 47.62008564101425, "lon": -122.1976736786291, "heading": 1.5747544499650268, "pitch": -0.118540762228844, "roll": 0.0023461882241569143, "date": null, "elevation": 58.10097122192383, "links": []}, "direction": 1.5744990528164882}, {"pano": {"id": "ORxLdHyw_H6Ohc9w_XBhPA", "lat": 47.62008709635654, "lon": -122.1979331245225, "heading": 1.5714388144078781, "pitch": -0.10315980851114585, "roll": 0.0032487111511928014, "date": null, "elevation": 55.837890625, "links": []}, "direction": 4.716945649009816}]}
{"id": "WQ3R_OSFU073VVFt_73k0A", "lat": 47.62008836173555, "lon": -122.1983333438844, "heading": 1.570452912172331, "pitch": -0.134084967721364, "roll": 6.274618450585019, "date": "2019-08", "elevation": 54.07083129882812, "links": [{"pano": {"id": "zQp61vont5NW88z_E_a77Q", "lat": 47.620088019687, "lon": -122.1981931992286, "heading": 1.5686753853027575, "pitch": -0.018895527408275707, "roll": 6.271034368389991, "date": null, "elevation": 54.9477424621582, "links": []}, "direction": 1.5750483297913171}, {"pano": {"id": "S-cic5mCX8tye3L9Dqaupw", "lat": 47.62008871297422, "lon": -122.1984643982718, "heading": 1.5595051895632333, "pitch": -0.11896926484823775, "roll": 6.27181307669273, "date": null, "elevation": 52.82835388183594, "links": []}, "direction": 4.716365079892178}]}
{"id": "hB_tEzayJJi-SU4npftGkA", "lat": 47.62008564101425, "lon": -122.1976736786291, "heading": 1.5747544499650268, "pitch": -0.118540762228844, "roll": 0.0023461882241569143, "date": "2019-08", "elevation": 58.10097122192383, "links": [{"pano": {"id": "J7JkJi80ktOwEjLZyNVHqQ", "lat": 47.62008508606014, "lon": -122.1975454026602, "heading": 1.5647906322206588, "pitch": -0.05342114725422646, "roll": 0.012745635144577836, "date": null, "elevation": 58.97418212890625, "links": []}, "direction": 1.5750785566696894}, {"pano": {"id": "w498fbHqvBZn9mEU1uEHkg", "lat": 47.62008645239518, "lon": -122.1978030015998, "heading": 1.5733476351191924, "pitch": -0.11329353593306087, "roll": 6.282956275325839, "date": null, "elevation": 56.95516967773438, "links": []}, "direction": 4.716091839564336}]}
{"id": "S-cic5mCX8tye3L9Dqaupw", "lat": 47.62008871297422, "lon": -122.1984643982718, "heading": 1.5595051895632333, "pitch": -0.11896926484823775, "roll": 6.27181307669273, "date": "2019-08", "elevation": 52.82835388183594, "links": [{"pano": {"id": "WQ3R_OSFU073VVFt_73k0A", "lat": 47.62008836173555, "lon": -122.1983333438844, "heading": 1.570452912172331, "pitch": -0.134084967721364, "roll": 6.274618450585019, "date": null, "elevation": 54.07083129882812, "links": []}, "direction": 1.5747724263023848}, {"pano": {"id": "kkwlbrFRSZtgrPjLG4Bduw", "lat": 47.620088447779, "lon": -122.1985854266244, "heading": 1.563096195977096, "pitch": -0.07314944513536994, "roll": 6.27018641789891, "date": null, "elevation": 52.10113906860352, "links": []}, "direction": 4.716259618713011}]}
{"id": "J7JkJi80ktOwEjLZyNVHqQ", "lat": 47.62008508606014, "lon": -122.1975454026602, "heading": 1.5647906322206588, "pitch": -0.05342114725422646, "roll": 0.012745635144577836, "date": "2019-08", "elevation": 58.97418212890625, "links": [{"pano": {"id": "2jzbrkZVDL2XmnIC_zxdhQ", "lat": 47.6200850181556, "lon": -122.1974121083224, "heading": 1.5732717350281253, "pitch": -0.018654511329623535, "roll": 6.2770243503137975, "date": null, "elevation": 59.24366760253906, "links": []}, "direction": 1.5746352735062459}, {"pano": {"id": "hB_tEzayJJi-SU4npftGkA", "lat": 47.62008564101425, "lon": -122.1976736786291, "heading": 1.5747544499650268, "pitch": -0.118540762228844, "roll": 0.0023461882241569143, "date": null, "elevation": 58.10097122192383, "links": []}, "direction": 4.716671343417537}]}
{"id": "kkwlbrFRSZtgrPjLG4Bduw", "lat": 47.620088447779, "lon": -122.1985854266244, "heading": 1.563096195977096, "pitch": -0.07314944513536994, "roll": 6.27018641789891, "date": "2019-08", "elevation": 52.10113906860352, "links": [{"pano": {"id": "S-cic5mCX8tye3L9Dqaupw", "lat": 47.62008871297422, "lon": -122.1984643982718, "heading": 1.5595051895632333, "pitch": -0.11896926484823775, "roll": 6.27181307669273, "date": null, "elevation": 52.82835388183594, "links": []}, "direction": 1.5746668319651633}, {"pano": {"id": "Hu3bQ_BKeEs_uwCWLRKY0w", "lat": 47.62008785401165, "lon": -122.1989217505086, "heading": 1.5528747173972628, "pitch": -0.004201669251818014, "roll": 6.274883701429593, "date": null, "elevation": 51.64764785766602, "links": []}, "direction": 4.716116873278582}]}
{"id": "4Gdd3a-xyNFdu7aP8LnuWg", "lat": 47.6505500632631, "lon": -122.2300021169729, "heading": 0.01280402079028862, "pitch": 0.04888658286614855, "roll": 6.276791590034524, "date": "2011-08", "elevation": 13.71602344512939, "links": [{"pano": {"id": "uzaKPe_eoTakfC8rC28ZVQ", "lat": 47.65045383281209, "lon": -122.2299919461645, "heading": 0.0009821178940413043, "pitch": 0.003311640815513533, "roll": 0.0015869090339563645, "date": null, "elevation": 13.29634475708008, "links": []}, "direction": 3.1536927260025682}, {"pano": {"id": "rNyLBrlrFM2LilZ9GZCLUA", "lat": 47.65063599189823, "lon": -122.2299998206136, "heading": 0.017016493529575568, "pitch": 0.07437263502404334, "roll": 6.282710731873334, "date": null, "elevation": 13.48562240600586, "links": []}, "direction": 0.010544810263006662}]}
{"id": "uzaKPe_eoTakfC8rC28ZVQ", "lat": 47.65045383281209, "lon": -122.2299919461645, "heading": 0.0009821178940413043, "pitch": 0.003311640815513533, "roll": 0.0015869090339563645, "date": "2021-08", "elevation": 13.29634475708008, "links": [{"pano": {"id": "Hx8L_5l6RlszdqJt--Yq_A", "lat": 47.65035700047977, "lon": -122.2300215222406, "heading": 3.135821583507591, "pitch": 0.03668664191249555, "roll": 6.27892424943546, "date": null, "elevation": 13.8605489730835, "links": []}, "direction": 3.153360363498526}, {"pano": {"id": "4Gdd3a-xyNFdu7aP8LnuWg", "lat": 47.6505500632631, "lon": -122.2300021169729, "heading": 0.01280402079028862, "pitch": 0.04888658286614855, "roll": 6.276791590034524, "date": null, "elevation": 13.71602344512939, "links": []}, "direction": 0.012100179563397002}]}
{"id": "rNyLBrlrFM2LilZ9GZCLUA", "lat": 47.65063599189823, "lon": -122.2299998206136, "heading": 0.017016493529575568, "pitch": 0.07437263502404334, "roll": 6.282710731873334, "date": "2011-08", "elevation": 13.48562240600586, "links": [{"pano": {"id": "TDqTi6PGGHPl6Jx3c7ynmw", "lat": 47.65073129376908, "lon": -122.2300156149424, "heading": 3.1713071397684613, "pitch": -0.022063224366870457, "roll": 6.281543202051443, "date": null, "elevation": 13.06041049957275, "links": []}, "direction": 6.257792066185681}, {"pano": {"id": "4Gdd3a-xyNFdu7aP8LnuWg", "lat": 47.6505500632631, "lon": -122.2300021169729, "heading": 0.01280402079028862, "pitch": 0.04888658286614855, "roll": 6.276791590034524, "date": null, "elevation": 13.71602344512939, "links": []}, "direction": 3.152137439925962}]}
{"id": "Hx8L_5l6RlszdqJt--Yq_A", "lat": 47.65035700047977, "lon": -122.2300215222406, "heading": 3.135821583507591, "pitch": 0.03668664191249555, "roll": 6.27892424943546, "date": "2011-08", "elevation": 13.8605489730835, "links": [{"pano": {"id": "fOtfixMaD353iFePUWVNFg", "lat": 47.65026455234539, "lon": -122.2300120897289, "heading": 6.280823083292686, "pitch": 0.00045979476220218046, "roll": 6.279351953106526, "date": null, "elevation": 13.15241718292236, "links": []}, "direction": 3.118318223559155}, {"pano": {"id": "uzaKPe_eoTakfC8rC28ZVQ", "lat": 47.65045383281209, "lon": -122.2299919461645, "heading": 0.0009821178940413043, "pitch": 0.003311640815513533, "roll": 0.0015869090339563645, "date": null, "elevation": 13.29634475708008, "links": []}, "direction": 0.011767741117652154}]}
{"id": "TDqTi6PGGHPl6Jx3c7ynmw", "lat": 47.65073129376908, "lon": -122.2300156149424, "heading": 3.1713071397684613, "pitch": -0.022063224366870457, "roll": 6.281543202051443, "date": "2011-08", "elevation": 13.06041049957275, "links": [{"pano": {"id": "w5KiL6jZ4ZbuoCLr_UeJBA", "lat": 47.65090833486927, "lon": -122.2300222154364, "heading": 3.148093429810676, "pitch": -0.08691852060329762, "roll": 0.014974749870947296, "date": null, "elevation": 11.24754810333252, "links": []}, "direction": 0.047167762053854596}, {"pano": {"id": "rNyLBrlrFM2LilZ9GZCLUA", "lat": 47.65063599189823, "lon": -122.2299998206136, "heading": 0.017016493529575568, "pitch": 0.07437263502404334, "roll": 6.282710731873334, "date": null, "elevation": 13.48562240600586, "links": []}, "direction": 3.1161991462797793}]}
{"id": "fOtfixMaD353iFePUWVNFg", "lat": 47.65026455234539, "lon": -122.2300120897289, "heading": 6.280823083292686, "pitch": 0.00045979476220218046, "roll": 6.279351953106526, "date": "2024-07", "elevation": 13.15241718292236, "links": [{"pano": {"id": "i3hoATUuaDHmSFJ9dq6aRw", "lat": 47.65019153148383, "lon": -122.2300132251547, "heading": 3.142871769861358, "pitch": -0.014301441369834517, "roll": 0.003223862609865601, "date": null, "elevation": 13.201828956604, "links": []}, "direction": 3.1451943126480155}, {"pano": {"id": "Hx8L_5l6RlszdqJt--Yq_A", "lat": 47.65035700047977, "lon": -122.2300215222406, "heading": 3.135821583507591, "pitch": 0.03668664191249555, "roll": 6.27892424943546, "date": null, "elevation": 13.8605489730835, "links": []}, "direction": 6.259910877148948}]}
{"id": "w5KiL6jZ4ZbuoCLr_UeJBA", "lat": 47.65090833486927, "lon": -122.2300222154364, "heading": 3.148093429810676, "pitch": -0.08691852060329762, "roll": 0.014974749870947296, "date": "2021-08", "elevation": 11.24754810333252, "links": [{"pano": {"id": "TDqTi6PGGHPl6Jx3c7ynmw", "lat": 47.65073129376908, "lon": -122.2300156149424, "heading": 3.1713071397684613, "pitch": -0.022063224366870457, "roll": 6.281543202051443, "date": null, "elevation": 13.06041049957275, "links": []}, "direction": 3.1887604322884044}]}
{"id": "i3hoATUuaDHmSFJ9dq6aRw", "lat": 47.65019153148383, "lon": -122.2300132251547, "heading": 3.142871769861358, "pitch": -0.014301441369834517, "roll": 0.003223862609865601, "date": "2024-07", "elevation": 13.201828956604, "links": [{"pano": {"id": "jZq53P7dSNoFhkGaZdLLog", "lat": 47.6500996418605, "lon": -122.2300134694098, "heading": 3.1440717902485478, "pitch": -0.011999138607461015, "roll": 6.280086452935171, "date": null, "elevation": 13.23580646514893, "links": []}, "direction": 3.1454566340153893}, {"pano": {"id": "fOtfixMaD353iFePUWVNFg", "lat": 47.65026455234539, "lon": -122.2300120897289, "heading": 6.280823083292686, "pitch": 0.00045979476220218046, "roll": 6.279351953106526, "date": null, "elevation": 13.15241718292236, "links": []}, "direction": 0.003601753985351862}]}
{"id": "jZq53P7dSNoFhkGaZdLLog", "lat": 47.6500996418605, "lon": -122.2300134694098, "heading": 3.1440717902485478, "pitch": -0.011999138607461015, "roll": 6.280086452935171, "date": "2024-07", "elevation": 13.23580646514893, "links": [{"pano": {"id": "eGYKbr61jIg-_GXzs_q5qA", "lat": 47.65000874741157, "lon": -122.2300145396445, "heading": 3.1458329386774166, "pitch": -0.014348845637237928, "roll": 0.00026734465420016586, "date": null, "elevation": 13.29238510131836, "links": []}, "direction": 3.1453330633408094}, {"pano": {"id": "i3hoATUuaDHmSFJ9dq6aRw", "lat": 47.65019153148383, "lon": -122.2300132251547, "heading": 3.142871769861358, "pitch": -0.014301441369834517, "roll": 0.003223862609865601, "date": null, "elevation": 13.201828956604, "links": []}, "direction": 0.0038640496053664714}]}
{"id": "58Mk7sxYcYnsn42uVm4I2g", "lat": 47.64120866211129, "lon": -122.102374387858, "heading": 2.2330041150163304, "pitch": 0.01612011407824963, "roll": 6.204913937477722, "date": "2019-08", "elevation": 18.84097099304199, "links": [{"pano": {"id": "4UrNr8DnIc6wP8gpXrr_QA", "lat": 47.64115345302707, "lon": -122.1022687487323, "heading": 2.2085645520087835, "pitch": 0.01623649421788609, "roll": 6.218072616423803, "date": null, "elevation": 18.70580863952637, "links": []}, "direction": 2.218268445230759}, {"pano": {"id": "S2q6lyzuGNVxBn-cInzrzg", "lat": 47.64126876400483, "lon": -122.1024838840495, "heading": 2.2656621931478647, "pitch": 0.010152502707600071, "roll": 6.205050291325533, "date": null, "elevation": 18.97516822814941, "links": []}, "direction": 5.388018035235688}]}
{"id": "4UrNr8DnIc6wP8gpXrr_QA", "lat": 47.64115345302707, "lon": -122.1022687487323, "heading": 2.2085645520087835, "pitch": 0.01623649421788609, "roll": 6.218072616423803, "date": "2019-08", "elevation": 18.70580863952637, "links": [{"pano": {"id": "RTTUEVg4pHurqMVNwoWA8w", "lat": 47.64109970693479, "lon": -122.1021616348436, "heading": 2.1935941245731216, "pitch": 0.013678261674755976, "roll": 6.247836104766528, "date": null, "elevation": 18.5472354888916, "links": []}, "direction": 2.2209083036613015}, {"pano": {"id": "58Mk7sxYcYnsn42uVm4I2g", "lat": 47.64120866211129, "lon": -122.102374387858, "heading": 2.2330041150163304, "pitch": 0.01612011407824963, "roll": 6.204913937477722, "date": null, "elevation": 18.84097099304199, "links": []}, "direction": 5.359860965662499}]}
{"id": "S2q6lyzuGNVxBn-cInzrzg", "lat": 47.64126876400483, "lon": -122.1024838840495, "heading": 2.2656621931478647, "pitch": 0.010152502707600071, "roll": 6.205050291325533, "date": "2019-08", "elevation": 18.97516822814941, "links": [{"pano": {"id": "58Mk7sxYcYnsn42uVm4I2g", "lat": 47.64120866211129, "lon": -122.102374387858, "heading": 2.2330041150163304, "pitch": 0.01612011407824963, "roll": 6.204913937477722, "date": null, "elevation": 18.84097099304199, "links": []}, "direction": 2.246425115329785}, {"pano": {"id": "C55vjO5HsqVBq2fr2Hgd-A", "lat": 47.64133028880176, "lon": -122.1025888248904, "heading": 2.299819098340893, "pitch": 0.010338524509742106, "roll": 6.214174813852363, "date": null, "elevation": 19.06168746948242, "links": []}, "direction": 5.434862506177964}]}
{"id": "RTTUEVg4pHurqMVNwoWA8w", "lat": 47.64109970693479, "lon": -122.1021616348436, "heading": 2.1935941245731216, "pitch": 0.013678261674755976, "roll": 6.247836104766528, "date": "2019-08", "elevation": 18.5472354888916, "links": [{"pano": {"id": "4UrNr8DnIc6wP8gpXrr_QA", "lat": 47.64115345302707, "lon": -122.1022687487323, "heading": 2.2085645520087835, "pitch": 0.01623649421788609, "roll": 6.218072616423803, "date": null, "elevation": 18.70580863952637, "links": []}, "direction": 5.362501223567203}, {"pano": {"id": "T0Et0X_O9V6L2yv6i3pfSA", "lat": 47.64104652001865, "lon": -122.102052195926, "heading": 2.18375853803524, "pitch": 0.008243815154340282, "roll": 6.274506065187018, "date": null, "elevation": 18.43903541564941, "links": []}, "direction": 2.1995007495548085}]}
{"id": "C55vjO5HsqVBq2fr2Hgd-A", "lat": 47.64133028880176, "lon": -122.1025888248904, "heading": 2.299819098340893, "pitch": 0.010338524509742106, "roll": 6.214174813852363, "date": "2019-08", "elevation": 19.06168746948242, "links": [{"pano": {"id": "KImMORbFTZ4x3OQviCrQHA", "lat": 47.64139177430739, "lon": -122.102688810761, "heading": 2.314686727758479, "pitch": 0.012930179724552718, "roll": 6.229360158387995, "date": null, "elevation": 19.19323921203613, "links": []}, "direction": 5.441398436125236}, {"pano": {"id": "S2q6lyzuGNVxBn-cInzrzg", "lat": 47.64126876400483, "lon": -122.1024838840495, "heading": 2.2656621931478647, "pitch": 0.010152502707600071, "roll": 6.205050291325533, "date": null, "elevation": 18.97516822814941, "links": []}, "direction": 2.2932701189042795}]}
{"id": "T0Et0X_O9V6L2yv6i3pfSA", "lat": 47.64104652001865, "lon": -122.102052195926, "heading": 2.18375853803524, "pitch": 0.008243815154340282, "roll": 6.274506065187018, "date": "2019-08", "elevation": 18.43903541564941, "links": [{"pano": {"id": "B7sS-LqWvXGCeBodX66g0Q", "lat": 47.64099351757201, "lon": -122.1019427013138, "heading": 2.183699948491259, "pitch": 0.0015510250188621483, "roll": 0.00905163409644808, "date": null, "elevation": 18.41668510437012, "links": []}, "direction": 2.1937901332293515}, {"pano": {"id": "RTTUEVg4pHurqMVNwoWA8w", "lat": 47.64109970693479, "lon": -122.1021616348436, "heading": 2.1935941245731216, "pitch": 0.013678261674755976, "roll": 6.247836104766528, "date": null, "elevation": 18.5472354888916, "links": []}, "direction": 5.34109366946071}]}
{"id": "KImMORbFTZ4x3OQviCrQHA", "lat": 47.64139177430739, "lon": -122.102688810761, "heading": 2.314686727758479, "pitch": 0.012930179724552718, "roll": 6.229360158387995, "date": "2019-08", "elevation": 19.19323921203613, "links": [{"pano": {"id": "C55vjO5HsqVBq2fr2Hgd-A", "lat": 47.64133028880176, "lon": -122.1025888248904, "heading": 2.299819098340893, "pitch": 0.010338524509742106, "roll": 6.214174813852363, "date": null, "elevation": 19.06168746948242, "links": []}, "direction": 2.299806048851553}, {"pano": {"id": "m1VAAA4tjqTG4hZcdKEiBg", "lat": 47.64145611865858, "lon": -122.1027916779592, "heading": 2.3195464641156556, "pitch": 0.009059674554286056, "roll": 6.248467273944876, "date": null, "elevation": 19.3249454498291, "links": []}, "direction": 5.452425520934819}]}
{"id": "B7sS-LqWvXGCeBodX66g0Q", "lat": 47.64099351757201, "lon": -122.1019427013138, "heading": 2.183699948491259, "pitch": 0.0015510250188621483, "roll": 0.00905163409644808, "date": "2019-08", "elevation": 18.41668510437012, "links": [{"pano": {"id": "d7UMQoyPsL2kFuXrDVUhKg", "lat": 47.64095320338423, "lon": -122.1018594391966, "heading": 2.184355219277473, "pitch": -0.004371445771310566, "roll": 0.008255671422677639, "date": null, "elevation": 18.44970512390137, "links": []}, "direction": 2.193906779685097}, {"pano": {"id": "T0Et0X_O9V6L2yv6i3pfSA", "lat": 47.64104652001865, "lon": -122.102052195926, "heading": 2.18375853803524, "pitch": 0.008243815154340282, "roll": 6.274506065187018, "date": null, "elevation": 18.43903541564941, "links": []}, "direction": 5.335382786819144}]}
{"id": "m1VAAA4tjqTG4hZcdKEiBg", "lat": 47.64145611865858, "lon": -122.1027916779592, "heading": 2.3195464641156556, "pitch": 0.009059674554286056, "roll": 6.248467273944876, "date": "2019-08", "elevation": 19.3249454498291, "links": [{"pano": {"id": "KImMORbFTZ4x3OQviCrQHA", "lat": 47.64139177430739, "lon": -122.102688810761, "heading": 2.314686727758479, "pitch": 0.012930179724552718, "roll": 6.229360158387995, "date": null, "elevation": 19.19323921203613, "links": []}, "direction": 2.310833133661134}, {"pano": {"id": "6vFt8dO3diTdE5e0FUE5tQ", "lat": 47.64151826425805, "lon": -122.1028906206128, "heading": 2.3216423718935477, "pitch": 0.019165039310591724, "roll": 6.274576372639796, "date": null, "elevation": 19.46027565002441, "links": []}, "direction": 5.471441023750202}]}
{"id": "Pb0CAX0KNsSjhP09-nMSwA", "lat": 47.58374822222112, "lon": -122.2431373477148, "heading": 6.283078780735983, "pitch": 0.025614549680491122, "roll": 0.025745042493310402, "date": "2019-05", "elevation": 96.75177764892578, "links": [{"pano": {"id": "rIAS9pLVSclxPodC4-RGZA", "lat": 47.58384208739909, "lon": -122.2431360451577, "heading": 0.0014182811327210724, "pitch": 0.019463845984898618, "roll": 0.03518900078992188, "date": null, "elevation": 96.59415435791016, "links": []}, "direction": 0.001985435096515723}, {"pano": {"id": "IzkfJysfuJdYYNHj_Tta9w", "lat": 47.58365591959433, "lon": -122.243138462218, "heading": 6.282119510111337, "pitch": 0.021619808045372262, "roll": 0.026100524564565537, "date": null, "elevation": 96.91047668457031, "links": []}, "direction": 3.1429924110587386}]}
{"id": "rIAS9pLVSclxPodC4-RGZA", "lat": 47.58384208739909, "lon": -122.2431360451577, "heading": 0.0014182811327210724, "pitch": 0.019463845984898618, "roll": 0.03518900078992188, "date": "2019-05", "elevation": 96.59415435791016, "links": [{"pano": {"id": "j-DmGMYE-idjmhLceWeNCQ", "lat": 47.58393287737026, "lon": -122.2431357591043, "heading": 6.2806334662230725, "pitch": 0.02311064562359862, "roll": 0.03298152736830122, "date": null, "elevation": 96.4474105834961, "links": []}, "direction": 0.0021248941017335413}, {"pano": {"id": "Pb0CAX0KNsSjhP09-nMSwA", "lat": 47.58374822222112, "lon": -122.2431373477148, "heading": 6.283078780735983, "pitch": 0.025614549680491122, "roll": 0.025745042493310402, "date": null, "elevation": 96.75177764892578, "links": []}, "direction": 3.143578040182447}]}
{"id": "IzkfJysfuJdYYNHj_Tta9w", "lat": 47.58365591959433, "lon": -122.243138462218, "heading": 6.282119510111337, "pitch": 0.021619808045372262, "roll": 0.026100524564565537, "date": "2019-05", "elevation": 96.91047668457031, "links": [{"pano": {"id": "Pb0CAX0KNsSjhP09-nMSwA", "lat": 47.58374822222112, "lon": -122.2431373477148, "heading": 6.283078780735983, "pitch": 0.025614549680491122, "roll": 0.025745042493310402, "date": null, "elevation": 96.75177764892578, "links": []}, "direction": 0.0013997024632258672}, {"pano": {"id": "1U5NmYqz0Q6N93RKxlwtTg", "lat": 47.58356427296819, "lon": -122.2431388182337, "heading": 0.0017764761692995671, "pitch": 0.0015189339277266935, "roll": 0.01938363490181679, "date": null, "elevation": 96.99050903320312, "links": []}, "direction": 3.1434526052951046}]}
{"id": "j-DmGMYE-idjmhLceWeNCQ", "lat": 47.58393287737026, "lon": -122.2431357591043, "heading": 6.2806334662230725, "pitch": 0.02311064562359862, "roll": 0.03298152736830122, "date": "2019-05", "elevation": 96.4474105834961, "links": [{"pano": {"id": "rIAS9pLVSclxPodC4-RGZA", "lat": 47.58384208739909, "lon": -122.2431360451577, "heading": 0.0014182811327210724, "pitch": 0.019463845984898618, "roll": 0.03518900078992188, "date": null, "elevation": 96.59415435791016, "links": []}, "direction": 3.1437175898235674}, {"pano": {"id": "HQchtuiDjt5V7M8Rx5a1aA", "lat": 47.58402410127572, "lon": -122.2431351556423, "heading": 6.280493383949733, "pitch": 0.017280852839360664, "roll": 0.03692950972034318, "date": null, "elevation": 96.31536865234375, "links": []}, "direction": 0.0023738653338450234}]}
{"id": "1U5NmYqz0Q6N93RKxlwtTg", "lat": 47.58356427296819, "lon": -122.2431388182337, "heading": 0.0017764761692995671, "pitch": 0.0015189339277266935, "roll": 0.01938363490181679, "date": "2019-05", "elevation": 96.99050903320312, "links": [{"pano": {"id": "IzkfJysfuJdYYNHj_Tta9w", "lat": 47.58365591959433, "lon": -122.243138462218, "heading": 6.282119510111337, "pitch": 0.021619808045372262, "roll": 0.026100524564565537, "date": null, "elevation": 96.91047668457031, "links": []}, "direction": 0.0018599878556425425}, {"pano": {"id": "OdMaQY-FIZiw_iuCLoA7GQ", "lat": 47.58347357069829, "lon": -122.2431393589338, "heading": 0.002723116544416948, "pitch": -0.005326189022103973, "roll": 0.032288110960661046, "date": null, "elevation": 96.9169921875, "links": []}, "direction": 3.1427452697095797}]}
{"id": "HQchtuiDjt5V7M8Rx5a1aA", "lat": 47.58402410127572, "lon": -122.2431351556423, "heading": 6.280493383949733, "pitch": 0.017280852839360664, "roll": 0.03692950972034318, "date": "2019-05", "elevation": 96.31536865234375, "links": [{"pano": {"id": "6GRUtPn5q036V8u6HoTF8g", "lat": 47.58411197195629, "lon": -122.2431340607376, "heading": 6.280970622417075, "pitch": 0.02119183805819653, "roll": 0.04164207313777927, "date": null, "elevation": 96.20511627197266, "links": []}, "direction": 0.0019017420083309174}, {"pano": {"id": "j-DmGMYE-idjmhLceWeNCQ", "lat": 47.58393287737026, "lon": -122.2431357591043, "heading": 6.2806334662230725, "pitch": 0.02311064562359862, "roll": 0.03298152736830122, "date": null, "elevation": 96.4474105834961, "links": []}, "direction": 3.143966595385489}]}
{"id": "OdMaQY-FIZiw_iuCLoA7GQ", "lat": 47.58347357069829, "lon": -122.2431393589338, "heading": 0.002723116544416948, "pitch": -0.005326189022103973, "roll": 0.032288110960661046, "date": "2019-05", "elevation": 96.9169921875, "links": [{"pano": {"id": "1U5NmYqz0Q6N93RKxlwtTg", "lat": 47.58356427296819, "lon": -122.2431388182337, "heading": 0.0017764761692995671, "pitch": 0.0015189339277266935, "roll": 0.01938363490181679, "date": null, "elevation": 96.99050903320312, "links": []}, "direction": 0.001152632504468782}, {"pano": {"id": "kEroBcmrEZWn6C1jIWKm0g", "lat": 47.58338698688852, "lon": -122.2431403487001, "heading": 6.283104879714666, "pitch": -0.006131662093798438, "roll": 0.029729805596719863, "date": null, "elevation": 96.7487564086914, "links": []}, "direction": 3.1435082653618878}]}
{"id": "6GRUtPn5q036V8u6HoTF8g", "lat": 47.58411197195629, "lon": -122.2431340607376, "heading": 6.280970622417075, "pitch": 0.02119183805819653, "roll": 0.04164207313777927, "date": "2019-05", "elevation": 96.20511627197266, "links": [{"pano": {"id": "v5GNp8Zncw8ROliWDVzIUQ", "lat": 47.58422966218065, "lon": -122.2431337526169, "heading": 6.281167696337742, "pitch": 0.038321822821804206, "roll": 0.03220162272366611, "date": null, "elevation": 95.95712280273438, "links": []}, "direction": 0.001173575249580083}, {"pano": {"id": "HQchtuiDjt5V7M8Rx5a1aA", "lat": 47.58402410127572, "lon": -122.2431351556423, "heading": 6.280493383949733, "pitch": 0.017280852839360664, "roll": 0.03692950972034318, "date": null, "elevation": 96.31536865234375, "links": []}, "direction": 3.1434944169242187}]}
{"id": "kEroBcmrEZWn6C1jIWKm0g", "lat": 47.58338698688852, "lon": -122.2431403487001, "heading": 6.283104879714666, "pitch": -0.006131662093798438, "roll": 0.029729805596719863, "date": "2019-05", "elevation": 96.7487564086914, "links": [{"pano": {"id": "OdMaQY-FIZiw_iuCLoA7GQ", "lat": 47.58347357069829, "lon": -122.2431393589338, "heading": 0.002723116544416948, "pitch": -0.005326189022103973, "roll": 0.032288110960661046, "date": null, "elevation": 96.9169921875, "links": []}, "direction": 0.0019155559861512397}, {"pano": {"id": "piD0C5lZGLZN_2iq0SYK-w", "lat": 47.58329942140002, "lon": -122.2431415394832, "heading": 6.280700577882542, "pitch": -0.002539057783281546, "roll": 0.03690862471173206, "date": null, "elevation": 96.59626770019531, "links": []}, "direction": 3.143655538170168}]}
{"id": "DyDhU3ixcGl-9BT_SNzHTQ", "lat": 47.63231205446479, "lon": -122.3638990841915, "heading": 1.56913105216527, "pitch": 0.05622146114044478, "roll": 0.023633686300500972, "date": "2022-12", "elevation": 132.5824584960938, "links": [{"pano": {"id": "gzc4Xdls-mAdkbff7NRqIA", "lat": 47.63231118711482, "lon": -122.3637647396416, "heading": 1.5660730774435865, "pitch": 0.05504381130641174, "roll": 0.02502733306310166, "date": null, "elevation": 132.1572570800781, "links": []}, "direction": 1.5525699186105033}, {"pano": {"id": "n6bbZFWeKFMN2ZU6GoeXHg", "lat": 47.63231167660766, "lon": -122.3640360486961, "heading": 1.5789332160314702, "pitch": 0.05315563009354556, "roll": 0.0291757536572803, "date": null, "elevation": 133.19677734375, "links": []}, "direction": 4.738387291578261}]}
{"id": "gzc4Xdls-mAdkbff7NRqIA", "lat": 47.63231118711482, "lon": -122.3637647396416, "heading": 1.5660730774435865, "pitch": 0.05504381130641174, "roll": 0.02502733306310166, "date": "2022-12", "elevation": 132.1572570800781, "links": [{"pano": {"id": "jJ9RwFObst_hNkbHjgUTAQ", "lat": 47.63231173719985, "lon": -122.363629879856, "heading": 1.5623976488231681, "pitch": 0.050506317441134735, "roll": 0.026688055351739848, "date": null, "elevation": 131.6464996337891, "links": []}, "direction": 1.5691640753627871}, {"pano": {"id": "DyDhU3ixcGl-9BT_SNzHTQ", "lat": 47.63231205446479, "lon": -122.3638990841915, "heading": 1.56913105216527, "pitch": 0.05622146114044478, "roll": 0.023633686300500972, "date": null, "elevation": 132.5824584960938, "links": []}, "direction": 4.694162838516405}]}
{"id": "n6bbZFWeKFMN2ZU6GoeXHg", "lat": 47.63231167660766, "lon": -122.3640360486961, "heading": 1.5789332160314702, "pitch": 0.05315563009354556, "roll": 0.0291757536572803, "date": "2022-12", "elevation": 133.19677734375, "links": [{"pano": {"id": "DyDhU3ixcGl-9BT_SNzHTQ", "lat": 47.63231205446479, "lon": -122.3638990841915, "heading": 1.56913105216527, "pitch": 0.05622146114044478, "roll": 0.023633686300500972, "date": null, "elevation": 132.5824584960938, "links": []}, "direction": 1.5967945048304135}, {"pano": {"id": "ceSt8LFjGczHOd1jA2qIQQ", "lat": 47.63231324871026, "lon": -122.3641718709433, "heading": 1.5841281112118333, "pitch": 0.05277812700902683, "roll": 0.028205822065895034, "date": null, "elevation": 133.6941375732422, "links": []}, "direction": 4.715500617802338}]}
