{"id": "47GDDoYyLTICi5F0eoLz-w", "lat": 52.50965544503142, "lon": 13.37811792169989, "heading": 4.6009069266251, "pitch": -0.0020188092643345667, "roll": 0.020137540436309994, "date": "2022-11", "elevation": 36.7073860168457, "links": [{"pano": {"id": "iR03PzlYp3e039wyHST60w", "lat": 52.50964594181984, "lon": 13.37797196654135, "heading": 4.607128603563744, "pitch": -0.005183709903784734, "roll": 0.02187617891218443, "date": null, "elevation": 36.76275253295898, "links": []}, "direction": 4.617508007596219}, {"pano": {"id": "JyNXRiWn5W1F9nrPuv89qA", "lat": 52.5096653159324, "lon": 13.37826500258138, "heading": 4.603360230621282, "pitch": -0.011883956890315088, "roll": 0.022092546186591146, "date": null, "elevation": 36.61928939819336, "links": []}, "direction": 1.4757269353593025}]}
{"id": "iR03PzlYp3e039wyHST60w", "lat": 52.50964594181984, "lon": 13.37797196654135, "heading": 4.607128603563744, "pitch": -0.005183709903784734, "roll": 0.02187617891218443, "date": "2022-11", "elevation": 36.76275253295898, "links": [{"pano": {"id": "47GDDoYyLTICi5F0eoLz-w", "lat": 52.50965544503142, "lon": 13.37811792169989, "heading": 4.6009069266251, "pitch": -0.0020188092643345667, "roll": 0.020137540436309994, "date": null, "elevation": 36.7073860168457, "links": []}, "direction": 1.4759156203225345}, {"pano": {"id": "9uJsVl8gGe2ltQE0j-Csig", "lat": 52.50958481410796, "lon": 13.37789241055489, "heading": 1.4316469587865834, "pitch": 0.010615093788946836, "roll": 0.027122841366830505, "date": null, "elevation": 36.82497787475586, "links": []}, "direction": 4.1805913970544735}, {"pano": {"id": "__XN1ri7_K7QDDA_XUHplA", "lat": 52.50964157945504, "lon": 13.37790101019013, "heading": 4.619517628954792, "pitch": -0.0063259396953197185, "roll": 0.022992688393254135, "date": null, "elevation": 36.85653686523438, "links": []}, "direction": 4.821721863144584}]}
{"id": "JyNXRiWn5W1F9nrPuv89qA", "lat": 52.5096653159324, "lon": 13.37826500258138, "heading": 4.603360230621282, "pitch": -0.011883956890315088, "roll": 0.022092546186591146, "date": "2022-11", "elevation": 36.61928939819336, "links": [{"pano": {"id": "47GDDoYyLTICi5F0eoLz-w", "lat": 52.50965544503142, "lon": 13.37811792169989, "heading": 4.6009069266251, "pitch": -0.0020188092643345667, "roll": 0.020137540436309994, "date": null, "elevation": 36.7073860168457, "links": []}, "direction": 4.617319455791042}, {"pano": {"id": "iVNqF_ktT9dHG9mpRkqkrg", "lat": 52.50967507964717, "lon": 13.37841085087499, "heading": 4.6091360943934445, "pitch": -0.0044249753092211585, "roll": 0.021870101495353077, "date": null, "elevation": 36.55846405029297, "links": []}, "direction": 1.4660945480125949}, {"pano": {"id": "TjmHR-abKlaqrHMqAQ66Rg", "lat": 52.50976614676917, "lon": 13.37834877013866, "heading": 6.0852980571168125, "pitch": 0.10203675347945944, "roll": 0.09171881021151661, "date": null, "elevation": 36.17806625366211, "links": []}, "direction": 0.29075520596228116}]}
{"id": "9uJsVl8gGe2ltQE0j-Csig", "lat": 52.50958481410796, "lon": 13.37789241055489, "heading": 1.4316469587865834, "pitch": 0.010615093788946836, "roll": 0.027122841366830505, "date": "2022-11", "elevation": 36.82497787475586, "links": [{"pano": {"id": "iR03PzlYp3e039wyHST60w", "lat": 52.50964594181984, "lon": 13.37797196654135, "heading": 4.607128603563744, "pitch": -0.005183709903784734, "roll": 0.02187617891218443, "date": null, "elevation": 36.76275253295898, "links": []}, "direction": 1.038998810043707}, {"pano": {"id": "CtYO8aPZoTX-vi8rDxbVNA", "lat": 52.50957122115518, "lon": 13.37774526840842, "heading": 1.3892868516458377, "pitch": 0.005691574723662844, "roll": 0.019199260930599243, "date": null, "elevation": 36.91610717773438, "links": []}, "direction": 4.474935146006609}]}
{"id": "__XN1ri7_K7QDDA_XUHplA", "lat": 52.50964157945504, "lon": 13.37790101019013, "heading": 4.619517628954792, "pitch": -0.0063259396953197185, "roll": 0.022992688393254135, "date": "2022-11", "elevation": 36.85653686523438, "links": [{"pano": {"id": "4rIrSK1-2S99kkZDq_dpdQ", "lat": 52.50963109866645, "lon": 13.37769213981732, "heading": 4.641640508130081, "pitch": -0.0036188364472541728, "roll": 0.016517143543104604, "date": null, "elevation": 37.02293395996094, "links": []}, "direction": 4.783711097538101}, {"pano": {"id": "iR03PzlYp3e039wyHST60w", "lat": 52.50964594181984, "lon": 13.37797196654135, "heading": 4.607128603563744, "pitch": -0.005183709903784734, "roll": 0.02187617891218443, "date": null, "elevation": 36.76275253295898, "links": []}, "direction": 1.6801292095547917}]}
{"id": "iVNqF_ktT9dHG9mpRkqkrg", "lat": 52.50967507964717, "lon": 13.37841085087499, "heading": 4.6091360943934445, "pitch": -0.0044249753092211585, "roll": 0.021870101495353077, "date": "2022-11", "elevation": 36.55846405029297, "links": [{"pano": {"id": "JyNXRiWn5W1F9nrPuv89qA", "lat": 52.5096653159324, "lon": 13.37826500258138, "heading": 4.603360230621282, "pitch": -0.011883956890315088, "roll": 0.022092546186591146, "date": null, "elevation": 36.61928939819336, "links": []}, "direction": 4.607687334760442}, {"pano": {"id": "nHLxLGuSNNQs6tuqp0bcUA", "lat": 52.50960309957085, "lon": 13.37854842557892, "heading": 1.4639797317909629, "pitch": 0.008398278497564879, "roll": 0.02825781820558422, "date": null, "elevation": 36.60190582275391, "links": []}, "direction": 1.4494708301722112}]}
{"id": "TjmHR-abKlaqrHMqAQ66Rg", "lat": 52.50976614676917, "lon": 13.37834877013866, "heading": 6.0852980571168125, "pitch": 0.10203675347945944, "roll": 0.09171881021151661, "date": "2022-07", "elevation": 36.17806625366211, "links": [{"pano": {"id": "JyNXRiWn5W1F9nrPuv89qA", "lat": 52.5096653159324, "lon": 13.37826500258138, "heading": 4.603360230621282, "pitch": -0.011883956890315088, "roll": 0.022092546186591146, "date": null, "elevation": 36.61928939819336, "links": []}, "direction": 3.432347792973047}, {"pano": {"id": "5ZUqxw7KWifPTmC7cHRmzg", "lat": 52.50985876933304, "lon": 13.37833230477532, "heading": 6.151379605877167, "pitch": 0.07350511029895003, "roll": 0.04766763322927326, "date": null, "elevation": 36.06916809082031, "links": []}, "direction": 6.184251535844233}]}
{"id": "CtYO8aPZoTX-vi8rDxbVNA", "lat": 52.50957122115518, "lon": 13.37774526840842, "heading": 1.3892868516458377, "pitch": 0.005691574723662844, "roll": 0.019199260930599243, "date": "2022-11", "elevation": 36.91610717773438, "links": [{"pano": {"id": "9uJsVl8gGe2ltQE0j-Csig", "lat": 52.50958481410796, "lon": 13.37789241055489, "heading": 1.4316469587865834, "pitch": 0.010615093788946836, "roll": 0.027122841366830505, "date": null, "elevation": 36.82497787475586, "links": []}, "direction": 1.3333422261007064}, {"pano": {"id": "-dNu6231fUnJGZFkb_pU6w", "lat": 52.50955362134162, "lon": 13.37759910408676, "heading": 1.371249261582731, "pitch": 0.004203400306526566, "roll": 0.030878281333248922, "date": null, "elevation": 36.96253204345703, "links": []}, "direction": 4.485289516324837}]}
{"id": "4rIrSK1-2S99kkZDq_dpdQ", "lat": 52.50963109866645, "lon": 13.37769213981732, "heading": 4.641640508130081, "pitch": -0.0036188364472541728, "roll": 0.016517143543104604, "date": "2022-11", "elevation": 37.02293395996094, "links": [{"pano": {"id": "JxGSEEBLaMU7NOgSvjyKgA", "lat": 52.50962755331765, "lon": 13.37749718978763, "heading": 4.69782841344079, "pitch": -0.006055895160785684, "roll": 0.022672014669684167, "date": null, "elevation": 37.02556610107422, "links": []}, "direction": 4.650668091593231}, {"pano": {"id": "__XN1ri7_K7QDDA_XUHplA", "lat": 52.50964157945504, "lon": 13.37790101019013, "heading": 4.619517628954792, "pitch": -0.0063259396953197185, "roll": 0.022992688393254135, "date": null, "elevation": 36.85653686523438, "links": []}, "direction": 1.6421187102644177}]}
{"id": "nHLxLGuSNNQs6tuqp0bcUA", "lat": 52.50960309957085, "lon": 13.37854842557892, "heading": 1.4639797317909629, "pitch": 0.008398278497564879, "roll": 0.02825781820558422, "date": "2022-06", "elevation": 36.60190582275391, "links": [{"pano": {"id": "iVNqF_ktT9dHG9mpRkqkrg", "lat": 52.50967507964717, "lon": 13.37841085087499, "heading": 4.6091360943934445, "pitch": -0.0044249753092211585, "roll": 0.021870101495353077, "date": null, "elevation": 36.55846405029297, "links": []}, "direction": 4.5910633506039495}, {"pano": {"id": "8eE_3FyP54WnLOEb1IdPpQ", "lat": 52.50968343729519, "lon": 13.37855883973181, "heading": 4.611508438292488, "pitch": -0.0036051211676402647, "roll": 0.019864826498902085, "date": null, "elevation": 36.58066558837891, "links": []}, "direction": 1.456722884136606}]}
{"id": "5ZUqxw7KWifPTmC7cHRmzg", "lat": 52.50985876933304, "lon": 13.37833230477532, "heading": 6.151379605877167, "pitch": 0.07350511029895003, "roll": 0.04766763322927326, "date": "2022-07", "elevation": 36.06916809082031, "links": [{"pano": {"id": "JsqZeNw8egccn9XL1L4B0Q", "lat": 52.50994699723278, "lon": 13.37830576716893, "heading": 0.008180786141627323, "pitch": 0.054406117383392266, "roll": 0.02891243360449871, "date": null, "elevation": 35.96823501586914, "links": []}, "direction": 6.184566854117298}, {"pano": {"id": "TjmHR-abKlaqrHMqAQ66Rg", "lat": 52.50976614676917, "lon": 13.37834877013866, "heading": 6.0852980571168125, "pitch": 0.10203675347945944, "roll": 0.09171881021151661, "date": null, "elevation": 36.17806625366211, "links": []}, "direction": 3.04265888225444}]}
{"id": "-dNu6231fUnJGZFkb_pU6w", "lat": 52.50955362134162, "lon": 13.37759910408676, "heading": 1.371249261582731, "pitch": 0.004203400306526566, "roll": 0.030878281333248922, "date": "2022-11", "elevation": 36.96253204345703, "links": [{"pano": {"id": "CtYO8aPZoTX-vi8rDxbVNA", "lat": 52.50957122115518, "lon": 13.37774526840842, "heading": 1.3892868516458377, "pitch": 0.005691574723662844, "roll": 0.019199260930599243, "date": null, "elevation": 36.91610717773438, "links": []}, "direction": 1.3436968627350436}, {"pano": {"id": "BAD3t8twWbWour3_lvMUdw", "lat": 52.50953605835299, "lon": 13.37745189620759, "heading": 1.3885942966043625, "pitch": 0.009981660923671488, "roll": 0.028575822526280315, "date": null, "elevation": 36.97685623168945, "links": []}, "direction": 4.512644974409913}]}
{"id": "JxGSEEBLaMU7NOgSvjyKgA", "lat": 52.50962755331765, "lon": 13.37749718978763, "heading": 4.69782841344079, "pitch": -0.006055895160785684, "roll": 0.022672014669684167, "date": "2022-11", "elevation": 37.02556610107422, "links": [{"pano": {"id": "T07ekvwfJiFbOBA1R4dtkQ", "lat": 52.50962510499207, "lon": 13.37732803752833, "heading": 4.677513820645666, "pitch": -0.0036056537998582806, "roll": 0.022245016320187397, "date": null, "elevation": 37.04065322875977, "links": []}, "direction": 4.648579640666391}, {"pano": {"id": "4rIrSK1-2S99kkZDq_dpdQ", "lat": 52.50963109866645, "lon": 13.37769213981732, "heading": 4.641640508130081, "pitch": -0.0036188364472541728, "roll": 0.016517143543104604, "date": null, "elevation": 37.02293395996094, "links": []}, "direction": 1.5090753048453838}, {"pano": {"id": "3kUxXemUxBujEE992G50Vg", "lat": 52.50973044545329, "lon": 13.37750312930046, "heading": 1.9874587982982626, "pitch": 0.13073377896366278, "roll": 0.06321922067143981, "date": null, "elevation": 36.24139404296875, "links": []}, "direction": 5.845505434669425}]}
{"id": "8eE_3FyP54WnLOEb1IdPpQ", "lat": 52.50968343729519, "lon": 13.37855883973181, "heading": 4.611508438292488, "pitch": -0.0036051211676402647, "roll": 0.019864826498902085, "date": "2022-11", "elevation": 36.58066558837891, "links": [{"pano": {"id": "nHLxLGuSNNQs6tuqp0bcUA", "lat": 52.50960309957085, "lon": 13.37854842557892, "heading": 1.4639797317909629, "pitch": 0.008398278497564879, "roll": 0.02825781820558422, "date": null, "elevation": 36.60190582275391, "links": []}, "direction": 4.598315670884454}, {"pano": {"id": "UzHSwijdGjlEcxqerLFcFg", "lat": 52.50969234224708, "lon": 13.37870639042857, "heading": 4.611051439849431, "pitch": -0.00692994463054969, "roll": 0.016922925029151315, "date": null, "elevation": 36.53132629394531, "links": []}, "direction": 1.46354563653328}]}
{"id": "JsqZeNw8egccn9XL1L4B0Q", "lat": 52.50994699723278, "lon": 13.37830576716893, "heading": 0.008180786141627323, "pitch": 0.054406117383392266, "roll": 0.02891243360449871, "date": "2022-07", "elevation": 35.96823501586914, "links": [{"pano": {"id": "xu339uB-musMatlZE6Tv9A", "lat": 52.51003761694655, "lon": 13.3782995275309, "heading": 6.186389521567349, "pitch": 0.11029162075232356, "roll": 0.034992184862986615, "date": null, "elevation": 35.96870422363281, "links": []}, "direction": 6.184153531516118}, {"pano": {"id": "5ZUqxw7KWifPTmC7cHRmzg", "lat": 52.50985876933304, "lon": 13.37833230477532, "heading": 6.151379605877167, "pitch": 0.07350511029895003, "roll": 0.04766763322927326, "date": null, "elevation": 36.06916809082031, "links": []}, "direction": 3.0429742005275053}]}
{"id": "BAD3t8twWbWour3_lvMUdw", "lat": 52.50953605835299, "lon": 13.37745189620759, "heading": 1.3885942966043625, "pitch": 0.009981660923671488, "roll": 0.028575822526280315, "date": "2022-11", "elevation": 36.97685623168945, "links": [{"pano": {"id": "GL2fBnp5JCjhhkb9IeIBvQ", "lat": 52.50952781291592, "lon": 13.37737867446874, "heading": 1.4005690672878492, "pitch": -0.0030435936517970576, "roll": 0.03293887517896792, "date": null, "elevation": 37.03150177001953, "links": []}, "direction": 4.489249104233568}, {"pano": {"id": "-dNu6231fUnJGZFkb_pU6w", "lat": 52.50955362134162, "lon": 13.37759910408676, "heading": 1.371249261582731, "pitch": 0.004203400306526566, "roll": 0.030878281333248922, "date": null, "elevation": 36.96253204345703, "links": []}, "direction": 1.3710523208201195}]}
{"id": "T07ekvwfJiFbOBA1R4dtkQ", "lat": 52.50962510499207, "lon": 13.37732803752833, "heading": 4.677513820645666, "pitch": -0.0036056537998582806, "roll": 0.022245016320187397, "date": "2022-11", "elevation": 37.04065322875977, "links": [{"pano": {"id": "YrzPuIPiNBzkA6fdZLEbAA", "lat": 52.50961912342262, "lon": 13.3771680038981, "heading": 4.628812061159169, "pitch": -0.0016835172830935905, "roll": 0.03089478252903442, "date": null, "elevation": 37.099365234375, "links": []}, "direction": 4.648343151961592}, {"pano": {"id": "JxGSEEBLaMU7NOgSvjyKgA", "lat": 52.50962755331765, "lon": 13.37749718978763, "heading": 4.69782841344079, "pitch": -0.006055895160785684, "roll": 0.022672014669684167, "date": null, "elevation": 37.02556610107422, "links": []}, "direction": 1.5069871202346525}]}
{"id": "3kUxXemUxBujEE992G50Vg", "lat": 52.50973044545329, "lon": 13.37750312930046, "heading": 1.9874587982982626, "pitch": 0.13073377896366278, "roll": 0.06321922067143981, "date": "2022-07", "elevation": 36.24139404296875, "links": [{"pano": {"id": "JxGSEEBLaMU7NOgSvjyKgA", "lat": 52.50962755331765, "lon": 13.37749718978763, "heading": 4.69782841344079, "pitch": -0.006055895160785684, "roll": 0.022672014669684167, "date": null, "elevation": 37.02556610107422, "links": []}, "direction": 2.7039127810796315}, {"pano": {"id": "V1g2f7v3X9sdCB7uJMsglw", "lat": 52.50979129907356, "lon": 13.3773080265961, "heading": 4.049701823167039, "pitch": 0.0030743531623874725, "roll": 0.04947410116975525, "date": null, "elevation": 36.52432632446289, "links": []}, "direction": 6.204741897271302}]}
{"id": "UzHSwijdGjlEcxqerLFcFg", "lat": 52.50969234224708, "lon": 13.37870639042857, "heading": 4.611051439849431, "pitch": -0.00692994463054969, "roll": 0.016922925029151315, "date": "2022-11", "elevation": 36.53132629394531, "links": [{"pano": {"id": "JN1AV8NZiy_io8VoB_wwAw", "lat": 52.50970247190357, "lon": 13.37885914776844, "heading": 4.611776884930368, "pitch": -0.0095518267237327, "roll": 0.015432997711063169, "date": null, "elevation": 36.59530258178711, "links": []}, "direction": 1.4632921035975044}, {"pano": {"id": "8eE_3FyP54WnLOEb1IdPpQ", "lat": 52.50968343729519, "lon": 13.37855883973181, "heading": 4.611508438292488, "pitch": -0.0036051211676402647, "roll": 0.019864826498902085, "date": null, "elevation": 36.58066558837891, "links": []}, "direction": 4.605138156965019}]}
{"id": "xu339uB-musMatlZE6Tv9A", "lat": 52.51003761694655, "lon": 13.3782995275309, "heading": 6.186389521567349, "pitch": 0.11029162075232356, "roll": 0.034992184862986615, "date": "2022-07", "elevation": 35.96870422363281, "links": [{"pano": {"id": "vrBIE8xo_YMyTHQXEFZktg", "lat": 52.51012869849789, "lon": 13.37828277482613, "heading": 6.181266664894472, "pitch": 0.14483934483532196, "roll": 0.02618460763420099, "date": null, "elevation": 35.98859786987305, "links": []}, "direction": 6.183974034458648}, {"pano": {"id": "JsqZeNw8egccn9XL1L4B0Q", "lat": 52.50994699723278, "lon": 13.37830576716893, "heading": 0.008180786141627323, "pitch": 0.054406117383392266, "roll": 0.02891243360449871, "date": null, "elevation": 35.96823501586914, "links": []}, "direction": 3.0425608779263253}]}
{"id": "GL2fBnp5JCjhhkb9IeIBvQ", "lat": 52.50952781291592, "lon": 13.37737867446874, "heading": 1.4005690672878492, "pitch": -0.0030435936517970576, "roll": 0.03293887517896792, "date": "2022-11", "elevation": 37.03150177001953, "links": [{"pano": {"id": "BAD3t8twWbWour3_lvMUdw", "lat": 52.50953605835299, "lon": 13.37745189620759, "heading": 1.3885942966043625, "pitch": 0.009981660923671488, "roll": 0.028575822526280315, "date": null, "elevation": 36.97685623168945, "links": []}, "direction": 1.347656317485719}, {"pano": {"id": "hcfn1mncHYHssqG3c2kjZA", "lat": 52.50951339358237, "lon": 13.37723006490098, "heading": 1.416238441351603, "pitch": 0.00032943302684280176, "roll": 0.018070174255162726, "date": null, "elevation": 37.04117965698242, "links": []}, "direction": 4.5759871956730125}]}
{"id": "YrzPuIPiNBzkA6fdZLEbAA", "lat": 52.50961912342262, "lon": 13.3771680038981, "heading": 4.628812061159169, "pitch": -0.0016835172830935905, "roll": 0.03089478252903442, "date": "2022-11", "elevation": 37.099365234375, "links": [{"pano": {"id": "XiRE35zPNemCvIMUzOqxAQ", "lat": 52.50961121972996, "lon": 13.37701316136977, "heading": 4.643348127021039, "pitch": -0.0004732437257070806, "roll": 0.036031945370391616, "date": null, "elevation": 37.08901977539062, "links": []}, "direction": 4.671648474660875}, {"pano": {"id": "T07ekvwfJiFbOBA1R4dtkQ", "lat": 52.50962510499207, "lon": 13.37732803752833, "heading": 4.677513820645666, "pitch": -0.0036056537998582806, "roll": 0.022245016320187397, "date": null, "elevation": 37.04065322875977, "links": []}, "direction": 1.50675023205569}]}
{"id": "V1g2f7v3X9sdCB7uJMsglw", "lat": 52.50979129907356, "lon": 13.3773080265961, "heading": 4.049701823167039, "pitch": 0.0030743531623874725, "roll": 0.04947410116975525, "date": "2022-07", "elevation": 36.52432632446289, "links": [{"pano": {"id": "FTDV9UVwT5k7ErmkoRFx-A", "lat": 52.50982108343709, "lon": 13.37737190980344, "heading": 3.7800799322980008, "pitch": 0.07630289418213278, "roll": 0.015923875516316317, "date": null, "elevation": 36.34401321411133, "links": []}, "direction": 0.05043941800231411}, {"pano": {"id": "3kUxXemUxBujEE992G50Vg", "lat": 52.50973044545329, "lon": 13.37750312930046, "heading": 1.9874587982982626, "pitch": 0.13073377896366278, "roll": 0.06321922067143981, "date": null, "elevation": 36.24139404296875, "links": []}, "direction": 3.063149243681509}, {"pano": {"id": "yVfGMSipwbvCLXboeEvBWQ", "lat": 52.50978962627912, "lon": 13.3773009475903, "heading": 4.342570713507492, "pitch": -0.022567227603167952, "roll": 0.05172646966168975, "date": null, "elevation": 36.35747909545898, "links": []}, "direction": 3.8012808251039036}]}
{"id": "JN1AV8NZiy_io8VoB_wwAw", "lat": 52.50970247190357, "lon": 13.37885914776844, "heading": 4.611776884930368, "pitch": -0.0095518267237327, "roll": 0.015432997711063169, "date": "2022-11", "elevation": 36.59530258178711, "links": [{"pano": {"id": "UzHSwijdGjlEcxqerLFcFg", "lat": 52.50969234224708, "lon": 13.37870639042857, "heading": 4.611051439849431, "pitch": -0.00692994463054969, "roll": 0.016922925029151315, "date": null, "elevation": 36.53132629394531, "links": []}, "direction": 4.604884624029244}, {"pano": {"id": "ZpC2Q2hg34Rtw_FjQj2iug", "lat": 52.50971109137799, "lon": 13.37901423048722, "heading": 4.61085276803211, "pitch": -0.012381568539996394, "roll": 0.026331035721074116, "date": null, "elevation": 36.41640853881836, "links": []}, "direction": 1.4632839809561797}]}
{"id": "vrBIE8xo_YMyTHQXEFZktg", "lat": 52.51012869849789, "lon": 13.37828277482613, "heading": 6.181266664894472, "pitch": 0.14483934483532196, "roll": 0.02618460763420099, "date": "2022-07", "elevation": 35.98859786987305, "links": [{"pano": {"id": "yVmZOe4toYHqLe7gu0-Caw", "lat": 52.51021720483517, "lon": 13.37825814418515, "heading": 5.411837348025357, "pitch": 0.07602099858074789, "roll": 6.240365405276639, "date": null, "elevation": 35.90057754516602, "links": []}, "direction": 6.18447257821471}, {"pano": {"id": "xu339uB-musMatlZE6Tv9A", "lat": 52.51003761694655, "lon": 13.3782995275309, "heading": 6.186389521567349, "pitch": 0.11029162075232356, "roll": 0.034992184862986615, "date": null, "elevation": 35.96870422363281, "links": []}, "direction": 3.0423816471849623}]}
{"id": "hcfn1mncHYHssqG3c2kjZA", "lat": 52.50951339358237, "lon": 13.37723006490098, "heading": 1.416238441351603, "pitch": 0.00032943302684280176, "roll": 0.018070174255162726, "date": "2022-11", "elevation": 37.04117965698242, "links": [{"pano": {"id": "GL2fBnp5JCjhhkb9IeIBvQ", "lat": 52.50952781291592, "lon": 13.37737867446874, "heading": 1.4005690672878492, "pitch": -0.0030435936517970576, "roll": 0.03293887517896792, "date": null, "elevation": 37.03150177001953, "links": []}, "direction": 1.434394275767109}, {"pano": {"id": "lv1X42tzFXLFFOKlGz-P8Q", "lat": 52.50949935331984, "lon": 13.37708176052527, "heading": 1.4142642400355272, "pitch": 0.004741358846722572, "roll": 0.025554682651423976, "date": null, "elevation": 37.07652282714844, "links": []}, "direction": 4.585106391877661}]}
{"id": "XiRE35zPNemCvIMUzOqxAQ", "lat": 52.50961121972996, "lon": 13.37701316136977, "heading": 4.643348127021039, "pitch": -0.0004732437257070806, "roll": 0.036031945370391616, "date": "2022-11", "elevation": 37.08901977539062, "links": [{"pano": {"id": "qptYszotODGExKw7n2JpsQ", "lat": 52.50960838308789, "lon": 13.37685243497463, "heading": 4.7024500631965145, "pitch": -0.01989447913316443, "roll": 0.01766468509265753, "date": null, "elevation": 37.07728576660156, "links": []}, "direction": 4.676542832112223}, {"pano": {"id": "YrzPuIPiNBzkA6fdZLEbAA", "lat": 52.50961912342262, "lon": 13.3771680038981, "heading": 4.628812061159169, "pitch": -0.0016835172830935905, "roll": 0.03089478252903442, "date": null, "elevation": 37.099365234375, "links": []}, "direction": 1.5300555547549735}]}
{"id": "FTDV9UVwT5k7ErmkoRFx-A", "lat": 52.50982108343709, "lon": 13.37737190980344, "heading": 3.7800799322980008, "pitch": 0.07630289418213278, "roll": 0.015923875516316317, "date": "2022-07", "elevation": 36.34401321411133, "links": [{"pano": {"id": "AUiiOME9A-pjOH13_bv_aA", "lat": 52.50978465973137, "lon": 13.37725400706158, "heading": 1.5122900065972182, "pitch": 0.09358001859596733, "roll": 0.03561190660983726, "date": null, "elevation": 36.51935958862305, "links": []}, "direction": 4.563790983144885}, {"pano": {"id": "FVXYPkPx84iJK9iClNIk4A", "lat": 52.50990072982152, "lon": 13.37745904994767, "heading": 3.7872121440133415, "pitch": 0.05667885905766589, "roll": 0.026613199719162605, "date": null, "elevation": 36.32281112670898, "links": []}, "direction": 0.16447786089821614}, {"pano": {"id": "V1g2f7v3X9sdCB7uJMsglw", "lat": 52.50979129907356, "lon": 13.3773080265961, "heading": 4.049701823167039, "pitch": 0.0030743531623874725, "roll": 0.04947410116975525, "date": null, "elevation": 36.52432632446289, "links": []}, "direction": 3.192032125687567}]}
{"id": "yVfGMSipwbvCLXboeEvBWQ", "lat": 52.50978962627912, "lon": 13.3773009475903, "heading": 4.342570713507492, "pitch": -0.022567227603167952, "roll": 0.05172646966168975, "date": "2022-07", "elevation": 36.35747909545898, "links": [{"pano": {"id": "g3jCsWzUOw3AfLEW-Ag1mA", "lat": 52.50977297315492, "lon": 13.37705634678307, "heading": 1.1775346523158932, "pitch": 0.11026046176756962, "roll": 0.05255826225509477, "date": null, "elevation": 36.58631896972656, "links": []}, "direction": 4.623654583392121}, {"pano": {"id": "V1g2f7v3X9sdCB7uJMsglw", "lat": 52.50979129907356, "lon": 13.3773080265961, "heading": 4.049701823167039, "pitch": 0.0030743531623874725, "roll": 0.04947410116975525, "date": null, "elevation": 36.52432632446289, "links": []}, "direction": 0.6596881049350838}]}
{"id": "ZpC2Q2hg34Rtw_FjQj2iug", "lat": 52.50971109137799, "lon": 13.37901423048722, "heading": 4.61085276803211, "pitch": -0.012381568539996394, "roll": 0.026331035721074116, "date": "2022-11", "elevation": 36.41640853881836, "links": [{"pano": {"id": "JN1AV8NZiy_io8VoB_wwAw", "lat": 52.50970247190357, "lon": 13.37885914776844, "heading": 4.611776884930368, "pitch": -0.0095518267237327, "roll": 0.015432997711063169, "date": null, "elevation": 36.59530258178711, "links": []}, "direction": 4.604876634545973}]}
{"id": "yVmZOe4toYHqLe7gu0-Caw", "lat": 52.51021720483517, "lon": 13.37825814418515, "heading": 5.411837348025357, "pitch": 0.07602099858074789, "roll": 6.240365405276639, "date": "2022-07", "elevation": 35.90057754516602, "links": [{"pano": {"id": "vrBIE8xo_YMyTHQXEFZktg", "lat": 52.51012869849789, "lon": 13.37828277482613, "heading": 6.181266664894472, "pitch": 0.14483934483532196, "roll": 0.02618460763420099, "date": null, "elevation": 35.98859786987305, "links": []}, "direction": 3.042880190941025}, {"pano": {"id": "6P0jlHMPgHSBcKUo5JEwWA", "lat": 52.51022042789063, "lon": 13.37822503168422, "heading": 4.564929218194784, "pitch": 0.08368917146546755, "roll": 0.0010650942824044314, "date": null, "elevation": 36.0543098449707, "links": []}, "direction": 5.5168356697950385}]}
{"id": "lv1X42tzFXLFFOKlGz-P8Q", "lat": 52.50949935331984, "lon": 13.37708176052527, "heading": 1.4142642400355272, "pitch": 0.004741358846722572, "roll": 0.025554682651423976, "date": "2022-11", "elevation": 37.07652282714844, "links": [{"pano": {"id": "hcfn1mncHYHssqG3c2kjZA", "lat": 52.50951339358237, "lon": 13.37723006490098, "heading": 1.416238441351603, "pitch": 0.00032943302684280176, "roll": 0.018070174255162726, "date": null, "elevation": 37.04117965698242, "links": []}, "direction": 1.443513871445922}, {"pano": {"id": "P3Kp4XaV9Jzbe9qgKXGcSw", "lat": 52.50948529855601, "lon": 13.37693285939549, "heading": 1.4027954699591554, "pitch": 0.004011386391931853, "roll": 0.01931920304819368, "date": null, "elevation": 37.09800338745117, "links": []}, "direction": 4.52768650824668}]}
{"id": "qptYszotODGExKw7n2JpsQ", "lat": 52.50960838308789, "lon": 13.37685243497463, "heading": 4.7024500631965145, "pitch": -0.01989447913316443, "roll": 0.01766468509265753, "date": "2022-11", "elevation": 37.07728576660156, "links": [{"pano": {"id": "i0PuDJ8Lv19BiH9ENkt84Q", "lat": 52.50960867935594, "lon": 13.37677409648579, "heading": 4.702516642223766, "pitch": -0.018823222584680055, "roll": 0.01567461508155521, "date": null, "elevation": 37.06604766845703, "links": []}, "direction": 4.779548576754307}, {"pano": {"id": "XiRE35zPNemCvIMUzOqxAQ", "lat": 52.50961121972996, "lon": 13.37701316136977, "heading": 4.643348127021039, "pitch": -0.0004732437257070806, "roll": 0.036031945370391616, "date": null, "elevation": 37.08901977539062, "links": []}, "direction": 1.534949912206321}, {"pano": {"id": "Iv-Z5wx2NqBjFcQZCMFggA", "lat": 52.50971216282187, "lon": 13.37669912588209, "heading": 4.545481218018372, "pitch": 0.09874295584324944, "roll": 0.04606349063023165, "date": null, "elevation": 36.59635162353516, "links": []}, "direction": 5.865087658164777}]}
{"id": "AUiiOME9A-pjOH13_bv_aA", "lat": 52.50978465973137, "lon": 13.37725400706158, "heading": 1.5122900065972182, "pitch": 0.09358001859596733, "roll": 0.03561190660983726, "date": "2022-07", "elevation": 36.51935958862305, "links": [{"pano": {"id": "jHtZhgIfLdqoFx8bxrF7UA", "lat": 52.50976744547388, "lon": 13.37710520063692, "heading": 4.401034822601891, "pitch": 0.04240631298565874, "roll": 0.03191179797625444, "date": null, "elevation": 36.5878791809082, "links": []}, "direction": 4.620269173014413}, {"pano": {"id": "FTDV9UVwT5k7ErmkoRFx-A", "lat": 52.50982108343709, "lon": 13.37737190980344, "heading": 3.7800799322980008, "pitch": 0.07630289418213278, "roll": 0.015923875516316317, "date": null, "elevation": 36.34401321411133, "links": []}, "direction": 1.4221983295550913}]}
{"id": "FVXYPkPx84iJK9iClNIk4A", "lat": 52.50990072982152, "lon": 13.37745904994767, "heading": 3.7872121440133415, "pitch": 0.05667885905766589, "roll": 0.026613199719162605, "date": "2022-07", "elevation": 36.32281112670898, "links": [{"pano": {"id": "FTDV9UVwT5k7ErmkoRFx-A", "lat": 52.50982108343709, "lon": 13.37737190980344, "heading": 3.7800799322980008, "pitch": 0.07630289418213278, "roll": 0.015923875516316317, "date": null, "elevation": 36.34401321411133, "links": []}, "direction": 3.306070547777522}, {"pano": {"id": "TfCkEp7os_8TOZYyQJg7EQ", "lat": 52.50996562998283, "lon": 13.37755049497868, "heading": 3.8200204244303557, "pitch": 0.10899852288503559, "roll": 0.026590225793571464, "date": null, "elevation": 36.28407669067383, "links": []}, "direction": 0.5507195426123116}]}
{"id": "g3jCsWzUOw3AfLEW-Ag1mA", "lat": 52.50977297315492, "lon": 13.37705634678307, "heading": 1.1775346523158932, "pitch": 0.11026046176756962, "roll": 0.05255826225509477, "date": "2022-07", "elevation": 36.58631896972656, "links": [{"pano": {"id": "yVfGMSipwbvCLXboeEvBWQ", "lat": 52.50978962627912, "lon": 13.3773009475903, "heading": 4.342570713507492, "pitch": -0.022567227603167952, "roll": 0.05172646966168975, "date": null, "elevation": 36.35747909545898, "links": []}, "direction": 1.4820619298023285}, {"pano": {"id": "bW-WmHFO7QvmhfiU2JcAVw", "lat": 52.50966596857158, "lon": 13.37693614447866, "heading": 6.176866590141444, "pitch": 0.15845435643418856, "roll": 0.020528817057091482, "date": null, "elevation": 36.23228073120117, "links": []}, "direction": 3.967489774000185}]}
{"id": "6P0jlHMPgHSBcKUo5JEwWA", "lat": 52.51022042789063, "lon": 13.37822503168422, "heading": 4.564929218194784, "pitch": 0.08368917146546755, "roll": 0.0010650942824044314, "date": "2022-07", "elevation": 36.0543098449707, "links": [{"pano": {"id": "w9Cc-dLaJcRajgA2H8xCDA", "lat": 52.51020986102653, "lon": 13.37807607143805, "heading": 4.601409731438908, "pitch": 0.07526479398921988, "roll": 0.05710854345479336, "date": null, "elevation": 36.07367324829102, "links": []}, "direction": 4.630592650663997}, {"pano": {"id": "yVmZOe4toYHqLe7gu0-Caw", "lat": 52.51021720483517, "lon": 13.37825814418515, "heading": 5.411837348025357, "pitch": 0.07602099858074789, "roll": 6.240365405276639, "date": null, "elevation": 35.90057754516602, "links": []}, "direction": 2.3752430162052462}]}
{"id": "P3Kp4XaV9Jzbe9qgKXGcSw", "lat": 52.50948529855601, "lon": 13.37693285939549, "heading": 1.4027954699591554, "pitch": 0.004011386391931853, "roll": 0.01931920304819368, "date": "2022-11", "elevation": 37.09800338745117, "links": [{"pano": {"id": "lv1X42tzFXLFFOKlGz-P8Q", "lat": 52.50949935331984, "lon": 13.37708176052527, "heading": 1.4142642400355272, "pitch": 0.004741358846722572, "roll": 0.025554682651423976, "date": null, "elevation": 37.07652282714844, "links": []}, "direction": 1.3860937214988325}, {"pano": {"id": "xcFWnea8kQB9g7lxDtZDYQ", "lat": 52.5094715159993, "lon": 13.37682126946041, "heading": 1.3367749075877642, "pitch": 0.012025903376416312, "roll": 0.020086426468731888, "date": null, "elevation": 37.2004280090332, "links": []}, "direction": 4.5865743262705125}]}
{"id": "i0PuDJ8Lv19BiH9ENkt84Q", "lat": 52.50960867935594, "lon": 13.37677409648579, "heading": 4.702516642223766, "pitch": -0.018823222584680055, "roll": 0.01567461508155521, "date": "2022-11", "elevation": 37.06604766845703, "links": [{"pano": {"id": "2v2iOtVFifyjm0wMg28FzQ", "lat": 52.50960558313204, "lon": 13.37662067828455, "heading": 4.679448873493718, "pitch": 0.02902818956575469, "roll": 0.021000229859549135, "date": null, "elevation": 37.27978515625, "links": []}, "direction": 4.713478213270532}, {"pano": {"id": "qptYszotODGExKw7n2JpsQ", "lat": 52.50960838308789, "lon": 13.37685243497463, "heading": 4.7024500631965145, "pitch": -0.01989447913316443, "roll": 0.01766468509265753, "date": null, "elevation": 37.07728576660156, "links": []}, "direction": 1.6379557900064603}]}
{"id": "Iv-Z5wx2NqBjFcQZCMFggA", "lat": 52.50971216282187, "lon": 13.37669912588209, "heading": 4.545481218018372, "pitch": 0.09874295584324944, "roll": 0.04606349063023165, "date": "2022-07", "elevation": 36.59635162353516, "links": [{"pano": {"id": "qptYszotODGExKw7n2JpsQ", "lat": 52.50960838308789, "lon": 13.37685243497463, "heading": 4.7024500631965145, "pitch": -0.01989447913316443, "roll": 0.01766468509265753, "date": null, "elevation": 37.07728576660156, "links": []}, "direction": 2.723494738258874}, {"pano": {"id": "-KtIX9tkN84oqetirP25dg", "lat": 52.50971874214698, "lon": 13.37681283424235, "heading": 4.537542867441063, "pitch": 0.11323454691491562, "roll": 0.05978115460555319, "date": null, "elevation": 36.43999099731445, "links": []}, "direction": 0.36569436192921173}]}
{"id": "jHtZhgIfLdqoFx8bxrF7UA", "lat": 52.50976744547388, "lon": 13.37710520063692, "heading": 4.401034822601891, "pitch": 0.04240631298565874, "roll": 0.03191179797625444, "date": "2022-07", "elevation": 36.5878791809082, "links": [{"pano": {"id": "rHmaU1QnC7ElctsLi51OTw", "lat": 52.50972653745793, "lon": 13.37695924373002, "heading": 4.598405685729299, "pitch": 0.0614921232538206, "roll": 0.06257870546214055, "date": null, "elevation": 36.52535629272461, "links": []}, "direction": 4.6206814303511585}, {"pano": {"id": "AUiiOME9A-pjOH13_bv_aA", "lat": 52.50978465973137, "lon": 13.37725400706158, "heading": 1.5122900065972182, "pitch": 0.09358001859596733, "roll": 0.03561190660983726, "date": null, "elevation": 36.51935958862305, "links": []}, "direction": 1.4786766525826742}]}
{"id": "TfCkEp7os_8TOZYyQJg7EQ", "lat": 52.50996562998283, "lon": 13.37755049497868, "heading": 3.8200204244303557, "pitch": 0.10899852288503559, "roll": 0.026590225793571464, "date": "2022-07", "elevation": 36.28407669067383, "links": [{"pano": {"id": "FVXYPkPx84iJK9iClNIk4A", "lat": 52.50990072982152, "lon": 13.37745904994767, "heading": 3.7872121440133415, "pitch": 0.05667885905766589, "roll": 0.026613199719162605, "date": null, "elevation": 36.32281112670898, "links": []}, "direction": 3.692312262781132}, {"pano": {"id": "9tue2WmaM7BFYj8qjpBy1Q", "lat": 52.51003524136433, "lon": 13.37764709318164, "heading": 3.7190360190556406, "pitch": 0.102996823052433, "roll": 0.027161800500745913, "date": null, "elevation": 36.20072174072266, "links": []}, "direction": 0.6855584512382771}]}
{"id": "bW-WmHFO7QvmhfiU2JcAVw", "lat": 52.50966596857158, "lon": 13.37693614447866, "heading": 6.176866590141444, "pitch": 0.15845435643418856, "roll": 0.020528817057091482, "date": "2022-07", "elevation": 36.23228073120117, "links": [{"pano": {"id": "g3jCsWzUOw3AfLEW-Ag1mA", "lat": 52.50977297315492, "lon": 13.37705634678307, "heading": 1.1775346523158932, "pitch": 0.11026046176756962, "roll": 0.05255826225509477, "date": null, "elevation": 36.58631896972656, "links": []}, "direction": 0.8258972535684468}, {"pano": {"id": "j9fA5SN5qPUhrhBNttot_g", "lat": 52.50957742035652, "lon": 13.37695898621611, "heading": 6.135766557670467, "pitch": 0.08097833979187588, "roll": 0.08323691677810166, "date": null, "elevation": 36.54453277587891, "links": []}, "direction": 3.0244500509332415}]}
{"id": "w9Cc-dLaJcRajgA2H8xCDA", "lat": 52.51020986102653, "lon": 13.37807607143805, "heading": 4.601409731438908, "pitch": 0.07526479398921988, "roll": 0.05710854345479336, "date": "2022-07", "elevation": 36.07367324829102, "links": [{"pano": {"id": "7nCGmXn5IDA9vcSOWIt0Dw", "lat": 52.5102017735211, "lon": 13.37792644427761, "heading": 4.5239437016506825, "pitch": 0.07372295687611852, "roll": 0.021940964466889805, "date": null, "elevation": 36.09347534179688, "links": []}, "direction": 4.60601007590591}, {"pano": {"id": "6P0jlHMPgHSBcKUo5JEwWA", "lat": 52.51022042789063, "lon": 13.37822503168422, "heading": 4.564929218194784, "pitch": 0.08368917146546755, "roll": 0.0010650942824044314, "date": null, "elevation": 36.0543098449707, "links": []}, "direction": 1.4889998639161484}]}
{"id": "xcFWnea8kQB9g7lxDtZDYQ", "lat": 52.5094715159993, "lon": 13.37682126946041, "heading": 1.3367749075877642, "pitch": 0.012025903376416312, "roll": 0.020086426468731888, "date": "2022-10", "elevation": 37.2004280090332, "links": [{"pano": {"id": "P3Kp4XaV9Jzbe9qgKXGcSw", "lat": 52.50948529855601, "lon": 13.37693285939549, "heading": 1.4027954699591554, "pitch": 0.004011386391931853, "roll": 0.01931920304819368, "date": null, "elevation": 37.09800338745117, "links": []}, "direction": 1.4449816726807192}, {"pano": {"id": "ByHH9LwNX7XAVCE1McgZrg", "lat": 52.50938005156924, "lon": 13.37675911638336, "heading": 6.065480410181096, "pitch": -0.012691161016718105, "roll": 0.009806823357810485, "date": null, "elevation": 37.00012588500977, "links": []}, "direction": 3.1635014146134384}, {"pano": {"id": "NMyrpFtYxQSBuJHSLfXYhw", "lat": 52.50946822788338, "lon": 13.3767842439487, "heading": 1.3480560579653398, "pitch": 0.02656263502855933, "roll": 0.023554475983422547, "date": null, "elevation": 37.1214714050293, "links": []}, "direction": 4.548322278269267}]}
{"id": "2v2iOtVFifyjm0wMg28FzQ", "lat": 52.50960558313204, "lon": 13.37662067828455, "heading": 4.679448873493718, "pitch": 0.02902818956575469, "roll": 0.021000229859549135, "date": "2022-11", "elevation": 37.27978515625, "links": [{"pano": {"id": "i0PuDJ8Lv19BiH9ENkt84Q", "lat": 52.50960867935594, "lon": 13.37677409648579, "heading": 4.702516642223766, "pitch": -0.018823222584680055, "roll": 0.01567461508155521, "date": null, "elevation": 37.06604766845703, "links": []}, "direction": 1.57188529336463}, {"pano": {"id": "6RCsZEITS6taQ-sCIReJ_g", "lat": 52.50959956055906, "lon": 13.37659375430975, "heading": 4.65941710840636, "pitch": 0.030199314655117035, "roll": 0.015304647910683561, "date": null, "elevation": 37.30416870117188, "links": []}, "direction": 4.7009272676852065}]}
{"id": "-KtIX9tkN84oqetirP25dg", "lat": 52.50971874214698, "lon": 13.37681283424235, "heading": 4.537542867441063, "pitch": 0.11323454691491562, "roll": 0.05978115460555319, "date": "2022-07", "elevation": 36.43999099731445, "links": [{"pano": {"id": "Iv-Z5wx2NqBjFcQZCMFggA", "lat": 52.50971216282187, "lon": 13.37669912588209, "heading": 4.545481218018372, "pitch": 0.09874295584324944, "roll": 0.04606349063023165, "date": null, "elevation": 36.59635162353516, "links": []}, "direction": 3.5072870155190046}, {"pano": {"id": "rHmaU1QnC7ElctsLi51OTw", "lat": 52.50972653745793, "lon": 13.37695924373002, "heading": 4.598405685729299, "pitch": 0.0614921232538206, "roll": 0.06257870546214055, "date": null, "elevation": 36.52535629272461, "links": []}, "direction": 1.478867601232833}]}
{"id": "rHmaU1QnC7ElctsLi51OTw", "lat": 52.50972653745793, "lon": 13.37695924373002, "heading": 4.598405685729299, "pitch": 0.0614921232538206, "roll": 0.06257870546214055, "date": "2022-07", "elevation": 36.52535629272461, "links": [{"pano": {"id": "jHtZhgIfLdqoFx8bxrF7UA", "lat": 52.50976744547388, "lon": 13.37710520063692, "heading": 4.401034822601891, "pitch": 0.04240631298565874, "roll": 0.03191179797625444, "date": null, "elevation": 36.5878791809082, "links": []}, "direction": 1.479088776761364}, {"pano": {"id": "-KtIX9tkN84oqetirP25dg", "lat": 52.50971874214698, "lon": 13.37681283424235, "heading": 4.537542867441063, "pitch": 0.11323454691491562, "roll": 0.05978115460555319, "date": null, "elevation": 36.43999099731445, "links": []}, "direction": 4.620460387980681}]}
{"id": "9tue2WmaM7BFYj8qjpBy1Q", "lat": 52.51003524136433, "lon": 13.37764709318164, "heading": 3.7190360190556406, "pitch": 0.102996823052433, "roll": 0.027161800500745913, "date": "2022-07", "elevation": 36.20072174072266, "links": [{"pano": {"id": "TfCkEp7os_8TOZYyQJg7EQ", "lat": 52.50996562998283, "lon": 13.37755049497868, "heading": 3.8200204244303557, "pitch": 0.10899852288503559, "roll": 0.026590225793571464, "date": null, "elevation": 36.28407669067383, "links": []}, "direction": 3.827151038249042}, {"pano": {"id": "9xzuEIUyw1pDiY_R2Sv8tw", "lat": 52.51010591196665, "lon": 13.37773807621951, "heading": 3.723339154744991, "pitch": 0.10200239870139742, "roll": 0.05528825620496739, "date": null, "elevation": 36.17840957641602, "links": []}, "direction": 0.6727963835575355}]}
{"id": "j9fA5SN5qPUhrhBNttot_g", "lat": 52.50957742035652, "lon": 13.37695898621611, "heading": 6.135766557670467, "pitch": 0.08097833979187588, "roll": 0.08323691677810166, "date": "2022-07", "elevation": 36.54453277587891, "links": [{"pano": {"id": "bW-WmHFO7QvmhfiU2JcAVw", "lat": 52.50966596857158, "lon": 13.37693614447866, "heading": 6.176866590141444, "pitch": 0.15845435643418856, "roll": 0.020528817057091482, "date": null, "elevation": 36.23228073120117, "links": []}, "direction": 6.166042970839143}, {"pano": {"id": "i0Rknr1VFDn--PVpMDHV1A", "lat": 52.5094860659279, "lon": 13.37697596105303, "heading": 6.173625523094817, "pitch": 0.13742150909306977, "roll": 0.023003709302858933, "date": null, "elevation": 36.35054779052734, "links": []}, "direction": 3.023976008259207}]}
{"id": "7nCGmXn5IDA9vcSOWIt0Dw", "lat": 52.5102017735211, "lon": 13.37792644427761, "heading": 4.5239437016506825, "pitch": 0.07372295687611852, "roll": 0.021940964466889805, "date": "2022-07", "elevation": 36.09347534179688, "links": [{"pano": {"id": "dnO8iEFK2vKPz7JQRC3Tfg", "lat": 52.51017084619077, "lon": 13.37782706088523, "heading": 3.7456894678773724, "pitch": 0.10669155959075444, "roll": 0.0705416028945587, "date": null, "elevation": 36.13115692138672, "links": []}, "direction": 4.309603975005618}, {"pano": {"id": "w9Cc-dLaJcRajgA2H8xCDA", "lat": 52.51020986102653, "lon": 13.37807607143805, "heading": 4.601409731438908, "pitch": 0.07526479398921988, "roll": 0.05710854345479336, "date": null, "elevation": 36.07367324829102, "links": []}, "direction": 1.4644175554741719}]}
{"id": "ByHH9LwNX7XAVCE1McgZrg", "lat": 52.50938005156924, "lon": 13.37675911638336, "heading": 6.065480410181096, "pitch": -0.012691161016718105, "roll": 0.009806823357810485, "date": "2022-03", "elevation": 37.00012588500977, "links": [{"pano": {"id": "C_f5iAz3e_N5ZBEfa1uC2A", "lat": 52.50929438242755, "lon": 13.37677853697757, "heading": 6.188687296955869, "pitch": 0.0026690200444774125, "roll": 0.01955984878100677, "date": null, "elevation": 36.96247100830078, "links": []}, "direction": 3.016604644677977}, {"pano": {"id": "xcFWnea8kQB9g7lxDtZDYQ", "lat": 52.5094715159993, "lon": 13.37682126946041, "heading": 1.3367749075877642, "pitch": 0.012025903376416312, "roll": 0.020086426468731888, "date": null, "elevation": 37.2004280090332, "links": []}, "direction": 0.02190885881159214}]}
{"id": "NMyrpFtYxQSBuJHSLfXYhw", "lat": 52.50946822788338, "lon": 13.3767842439487, "heading": 1.3480560579653398, "pitch": 0.02656263502855933, "roll": 0.023554475983422547, "date": "2022-11", "elevation": 37.1214714050293, "links": [{"pano": {"id": "QoQC8FM7CjVQbniCHU3Rqw", "lat": 52.50944696785538, "lon": 13.37663675263315, "heading": 1.333610539580532, "pitch": -0.015923972263965292, "roll": 0.012797538697807259, "date": null, "elevation": 37.16561889648438, "links": []}, "direction": 4.4647046126790695}, {"pano": {"id": "xcFWnea8kQB9g7lxDtZDYQ", "lat": 52.5094715159993, "lon": 13.37682126946041, "heading": 1.3367749075877642, "pitch": 0.012025903376416312, "roll": 0.020086426468731888, "date": null, "elevation": 37.2004280090332, "links": []}, "direction": 1.406729890995584}]}
{"id": "6RCsZEITS6taQ-sCIReJ_g", "lat": 52.50959956055906, "lon": 13.37659375430975, "heading": 4.65941710840636, "pitch": 0.030199314655117035, "roll": 0.015304647910683561, "date": "2022-07", "elevation": 37.30416870117188, "links": [{"pano": {"id": "uqUAfzjDZRSnZG1TpC5vkw", "lat": 52.50960008554615, "lon": 13.37646796636332, "heading": 4.628149466679957, "pitch": 0.007932491622910019, "roll": 0.01677523610194961, "date": null, "elevation": 36.98590087890625, "links": []}, "direction": 4.602145296531988}, {"pano": {"id": "2v2iOtVFifyjm0wMg28FzQ", "lat": 52.50960558313204, "lon": 13.37662067828455, "heading": 4.679448873493718, "pitch": 0.02902818956575469, "roll": 0.021000229859549135, "date": null, "elevation": 37.27978515625, "links": []}, "direction": 1.559334747253468}, {"pano": {"id": "izcVle8q16c1eNiyKYkU5Q", "lat": 52.50961261344961, "lon": 13.37657244691033, "heading": 3.0609321620740184, "pitch": -0.01453113901385385, "roll": 0.031909107767434546, "date": null, "elevation": 37.18073654174805, "links": []}, "direction": 0.028445818653192415}, {"pano": {"id": "CeGkP_AFu2nAdhMrVfb6KA", "lat": 52.50956644133336, "lon": 13.37657838973545, "heading": 3.0595310730245275, "pitch": -0.013636183729532724, "roll": 0.02568184027109686, "date": null, "elevation": 37.13814544677734, "links": []}, "direction": 3.024018352520538}]}
{"id": "9xzuEIUyw1pDiY_R2Sv8tw", "lat": 52.51010591196665, "lon": 13.37773807621951, "heading": 3.723339154744991, "pitch": 0.10200239870139742, "roll": 0.05528825620496739, "date": "2022-07", "elevation": 36.17840957641602, "links": [{"pano": {"id": "9tue2WmaM7BFYj8qjpBy1Q", "lat": 52.51003524136433, "lon": 13.37764709318164, "heading": 3.7190360190556406, "pitch": 0.102996823052433, "roll": 0.027161800500745913, "date": null, "elevation": 36.20072174072266, "links": []}, "direction": 3.814388903989274}, {"pano": {"id": "dnO8iEFK2vKPz7JQRC3Tfg", "lat": 52.51017084619077, "lon": 13.37782706088523, "heading": 3.7456894678773724, "pitch": 0.10669155959075444, "roll": 0.0705416028945587, "date": null, "elevation": 36.13115692138672, "links": []}, "direction": 0.6932976639450745}]}
{"id": "i0Rknr1VFDn--PVpMDHV1A", "lat": 52.5094860659279, "lon": 13.37697596105303, "heading": 6.173625523094817, "pitch": 0.13742150909306977, "roll": 0.023003709302858933, "date": "2022-07", "elevation": 36.35054779052734, "links": [{"pano": {"id": "AJ09AzTsdSDmy8mAzEzCWg", "lat": 52.50939704303887, "lon": 13.37699644428606, "heading": 6.071555613259786, "pitch": 0.07491964831194561, "roll": 0.1069977482147079, "date": null, "elevation": 36.35837173461914, "links": []}, "direction": 3.024462035158147}, {"pano": {"id": "j9fA5SN5qPUhrhBNttot_g", "lat": 52.50957742035652, "lon": 13.37695898621611, "heading": 6.135766557670467, "pitch": 0.08097833979187588, "roll": 0.08323691677810166, "date": null, "elevation": 36.54453277587891, "links": []}, "direction": 6.1655683955328895}]}
{"id": "dnO8iEFK2vKPz7JQRC3Tfg", "lat": 52.51017084619077, "lon": 13.37782706088523, "heading": 3.7456894678773724, "pitch": 0.10669155959075444, "roll": 0.0705416028945587, "date": "2022-07", "elevation": 36.13115692138672, "links": [{"pano": {"id": "9xzuEIUyw1pDiY_R2Sv8tw", "lat": 52.51010591196665, "lon": 13.37773807621951, "heading": 3.723339154744991, "pitch": 0.10200239870139742, "roll": 0.05528825620496739, "date": null, "elevation": 36.17840957641602, "links": []}, "direction": 3.8348904506929227}, {"pano": {"id": "7nCGmXn5IDA9vcSOWIt0Dw", "lat": 52.5102017735211, "lon": 13.37792644427761, "heading": 4.5239437016506825, "pitch": 0.07372295687611852, "roll": 0.021940964466889805, "date": null, "elevation": 36.09347534179688, "links": []}, "direction": 1.168011454573879}]}
{"id": "C_f5iAz3e_N5ZBEfa1uC2A", "lat": 52.50929438242755, "lon": 13.37677853697757, "heading": 6.188687296955869, "pitch": 0.0026690200444774125, "roll": 0.01955984878100677, "date": "2022-03", "elevation": 36.96247100830078, "links": [{"pano": {"id": "ByHH9LwNX7XAVCE1McgZrg", "lat": 52.50938005156924, "lon": 13.37675911638336, "heading": 6.065480410181096, "pitch": -0.012691161016718105, "roll": 0.009806823357810485, "date": null, "elevation": 37.00012588500977, "links": []}, "direction": 6.15819729826777}, {"pano": {"id": "hJ_N99vV1Vyij82e0aRsoA", "lat": 52.50918480024527, "lon": 13.37679550546117, "heading": 6.175728355091543, "pitch": -0.00154503290640947, "roll": 0.02210985881427126, "date": null, "elevation": 36.96867752075195, "links": []}, "direction": 3.0887600649364746}]}
{"id": "QoQC8FM7CjVQbniCHU3Rqw", "lat": 52.50944696785538, "lon": 13.37663675263315, "heading": 1.333610539580532, "pitch": -0.015923972263965292, "roll": 0.012797538697807259, "date": "2022-11", "elevation": 37.16561889648438, "links": [{"pano": {"id": "NMyrpFtYxQSBuJHSLfXYhw", "lat": 52.50946822788338, "lon": 13.3767842439487, "heading": 1.3480560579653398, "pitch": 0.02656263502855933, "roll": 0.023554475983422547, "date": null, "elevation": 37.1214714050293, "links": []}, "direction": 1.3231119590892761}, {"pano": {"id": "REoTFtuZqCnhxLjkSSIX_A", "lat": 52.50943599272291, "lon": 13.3765634863501, "heading": 1.3445281684693118, "pitch": -0.018280337196467402, "roll": 0.013688697937277724, "date": null, "elevation": 37.09793090820312, "links": []}, "direction": 4.491023302151778}, {"pano": {"id": "ylKy1mkP_fXpKdSCD4Xq9w", "lat": 52.50937989957235, "lon": 13.37660242825772, "heading": 3.071668429692563, "pitch": 0.0011262508249945099, "roll": 0.012567843134382526, "date": null, "elevation": 37.16732025146484, "links": []}, "direction": 3.4440553154411444}, {"pano": {"id": "DTimBUUcObvrLJH-5wAPPg", "lat": 52.50947210102, "lon": 13.3765910626644, "heading": 3.066962890362502, "pitch": 0.017888586200116748, "roll": 0.009539191272717035, "date": null, "elevation": 37.18414306640625, "links": []}, "direction": 5.776443808649271}]}
{"id": "uqUAfzjDZRSnZG1TpC5vkw", "lat": 52.50960008554615, "lon": 13.37646796636332, "heading": 4.628149466679957, "pitch": 0.007932491622910019, "roll": 0.01677523610194961, "date": "2022-11", "elevation": 36.98590087890625, "links": [{"pano": {"id": "UdXorgBwSErX9khPqIycQQ", "lat": 52.50959039596307, "lon": 13.37632145212423, "heading": 4.600090934067101, "pitch": -0.004066380668441989, "roll": 0.02558947227375774, "date": null, "elevation": 36.99845123291016, "links": []}, "direction": 4.601407068277818}, {"pano": {"id": "6RCsZEITS6taQ-sCIReJ_g", "lat": 52.50959956055906, "lon": 13.37659375430975, "heading": 4.65941710840636, "pitch": 0.030199314655117035, "roll": 0.015304647910683561, "date": null, "elevation": 37.30416870117188, "links": []}, "direction": 1.4605526429421944}]}
{"id": "izcVle8q16c1eNiyKYkU5Q", "lat": 52.50961261344961, "lon": 13.37657244691033, "heading": 3.0609321620740184, "pitch": -0.01453113901385385, "roll": 0.031909107767434546, "date": "2022-07", "elevation": 37.18073654174805, "links": [{"pano": {"id": "Si9YYcXWWW-5xtlRg6Ozfw", "lat": 52.50970418927235, "lon": 13.37656148100016, "heading": 3.062445370205401, "pitch": -0.008523447068798602, "roll": 0.0243459799429617, "date": null, "elevation": 37.01422882080078, "links": []}, "direction": 6.196782241405273}, {"pano": {"id": "6RCsZEITS6taQ-sCIReJ_g", "lat": 52.50959956055906, "lon": 13.37659375430975, "heading": 4.65941710840636, "pitch": 0.030199314655117035, "roll": 0.015304647910683561, "date": null, "elevation": 37.30416870117188, "links": []}, "direction": 3.1700384098251484}]}
{"id": "CeGkP_AFu2nAdhMrVfb6KA", "lat": 52.50956644133336, "lon": 13.37657838973545, "heading": 3.0595310730245275, "pitch": -0.013636183729532724, "roll": 0.02568184027109686, "date": "2022-07", "elevation": 37.13814544677734, "links": [{"pano": {"id": "DTimBUUcObvrLJH-5wAPPg", "lat": 52.50947210102, "lon": 13.3765910626644, "heading": 3.066962890362502, "pitch": 0.017888586200116748, "roll": 0.009539191272717035, "date": null, "elevation": 37.18414306640625, "links": []}, "direction": 3.104405870024581}, {"pano": {"id": "qpZtFw-HCFv0_zOHDBKSqQ", "lat": 52.50948578993367, "lon": 13.3763455935944, "heading": 4.836973254075251, "pitch": 0.04481687324634396, "roll": 0.013072315544762689, "date": null, "elevation": 36.76909255981445, "links": []}, "direction": 4.346873050248513}, {"pano": {"id": "6RCsZEITS6taQ-sCIReJ_g", "lat": 52.50959956055906, "lon": 13.37659375430975, "heading": 4.65941710840636, "pitch": 0.030199314655117035, "roll": 0.015304647910683561, "date": null, "elevation": 37.30416870117188, "links": []}, "direction": 6.165611006110331}]}
{"id": "AJ09AzTsdSDmy8mAzEzCWg", "lat": 52.50939704303887, "lon": 13.37699644428606, "heading": 6.071555613259786, "pitch": 0.07491964831194561, "roll": 0.1069977482147079, "date": "2022-07", "elevation": 36.35837173461914, "links": [{"pano": {"id": "i0Rknr1VFDn--PVpMDHV1A", "lat": 52.5094860659279, "lon": 13.37697596105303, "heading": 6.173625523094817, "pitch": 0.13742150909306977, "roll": 0.023003709302858933, "date": null, "elevation": 36.35054779052734, "links": []}, "direction": 6.1660546887479395}, {"pano": {"id": "6XR8rkB8jYadnqCbH1g4xw", "lat": 52.50930658292384, "lon": 13.37697821685007, "heading": 0.824641706272529, "pitch": 0.11969271255835777, "roll": 0.06521500191472361, "date": null, "elevation": 36.4755859375, "links": []}, "direction": 3.836578095875705}]}
{"id": "hJ_N99vV1Vyij82e0aRsoA", "lat": 52.50918480024527, "lon": 13.37679550546117, "heading": 6.175728355091543, "pitch": -0.00154503290640947, "roll": 0.02210985881427126, "date": "2022-03", "elevation": 36.96867752075195, "links": [{"pano": {"id": "C_f5iAz3e_N5ZBEfa1uC2A", "lat": 52.50929438242755, "lon": 13.37677853697757, "heading": 6.188687296955869, "pitch": 0.0026690200444774125, "roll": 0.01955984878100677, "date": null, "elevation": 36.96247100830078, "links": []}, "direction": 6.230352452210158}, {"pano": {"id": "SnqMaqCmGmUMLFcEoXeeuw", "lat": 52.50909371310896, "lon": 13.37681520819521, "heading": 6.083298555770381, "pitch": -0.002988865691395929, "roll": 0.019387791929830832, "date": null, "elevation": 37.13552474975586, "links": []}, "direction": 3.0668821965814734}]}
{"id": "REoTFtuZqCnhxLjkSSIX_A", "lat": 52.50943599272291, "lon": 13.3765634863501, "heading": 1.3445281684693118, "pitch": -0.018280337196467402, "roll": 0.013688697937277724, "date": "2022-11", "elevation": 37.09793090820312, "links": [{"pano": {"id": "QoQC8FM7CjVQbniCHU3Rqw", "lat": 52.50944696785538, "lon": 13.37663675263315, "heading": 1.333610539580532, "pitch": -0.015923972263965292, "roll": 0.012797538697807259, "date": null, "elevation": 37.16561889648438, "links": []}, "direction": 1.3494305154039297}, {"pano": {"id": "AcEXVa_O4DPJz-_od8BmIA", "lat": 52.50941714486424, "lon": 13.37641446919199, "heading": 1.4137055088388286, "pitch": -0.0003514041058359555, "roll": 0.02553259089794393, "date": null, "elevation": 37.02697372436523, "links": []}, "direction": 4.562814668289262}]}
{"id": "ylKy1mkP_fXpKdSCD4Xq9w", "lat": 52.50937989957235, "lon": 13.37660242825772, "heading": 3.071668429692563, "pitch": 0.0011262508249945099, "roll": 0.012567843134382526, "date": "2022-07", "elevation": 37.16732025146484, "links": [{"pano": {"id": "QoQC8FM7CjVQbniCHU3Rqw", "lat": 52.50944696785538, "lon": 13.37663675263315, "heading": 1.333610539580532, "pitch": -0.015923972263965292, "roll": 0.012797538697807259, "date": null, "elevation": 37.16561889648438, "links": []}, "direction": 0.3024625619828104}, {"pano": {"id": "Ax_eTJSKlUYkYUuwufgmgw", "lat": 52.50928901280302, "lon": 13.37661172662294, "heading": 3.068258518232826, "pitch": 0.0018710038238351687, "roll": 0.02101702858036265, "date": null, "elevation": 37.07976150512695, "links": []}, "direction": 3.075418426823504}]}
{"id": "DTimBUUcObvrLJH-5wAPPg", "lat": 52.50947210102, "lon": 13.3765910626644, "heading": 3.066962890362502, "pitch": 0.017888586200116748, "roll": 0.009539191272717035, "date": "2022-07", "elevation": 37.18414306640625, "links": [{"pano": {"id": "CeGkP_AFu2nAdhMrVfb6KA", "lat": 52.50956644133336, "lon": 13.37657838973545, "heading": 3.0595310730245275, "pitch": -0.013636183729532724, "roll": 0.02568184027109686, "date": null, "elevation": 37.13814544677734, "links": []}, "direction": 6.245998523614374}, {"pano": {"id": "QoQC8FM7CjVQbniCHU3Rqw", "lat": 52.50944696785538, "lon": 13.37663675263315, "heading": 1.333610539580532, "pitch": -0.015923972263965292, "roll": 0.012797538697807259, "date": null, "elevation": 37.16561889648438, "links": []}, "direction": 2.6348514213755867}]}
{"id": "UdXorgBwSErX9khPqIycQQ", "lat": 52.50959039596307, "lon": 13.37632145212423, "heading": 4.600090934067101, "pitch": -0.004066380668441989, "roll": 0.02558947227375774, "date": "2022-11", "elevation": 36.99845123291016, "links": [{"pano": {"id": "_GkXakoyzvqVobIhwSpjXA", "lat": 52.5095795397088, "lon": 13.37617282958851, "heading": 4.586944505662032, "pitch": -0.003551458471675168, "roll": 0.028403894671969673, "date": null, "elevation": 36.98270797729492, "links": []}, "direction": 4.603153036688473}, {"pano": {"id": "uqUAfzjDZRSnZG1TpC5vkw", "lat": 52.50960008554615, "lon": 13.37646796636332, "heading": 4.628149466679957, "pitch": 0.007932491622910019, "roll": 0.01677523610194961, "date": null, "elevation": 36.98590087890625, "links": []}, "direction": 1.4598144146880245}]}
{"id": "Si9YYcXWWW-5xtlRg6Ozfw", "lat": 52.50970418927235, "lon": 13.37656148100016, "heading": 3.062445370205401, "pitch": -0.008523447068798602, "roll": 0.0243459799429617, "date": "2022-07", "elevation": 37.01422882080078, "links": [{"pano": {"id": "izcVle8q16c1eNiyKYkU5Q", "lat": 52.50961261344961, "lon": 13.37657244691033, "heading": 3.0609321620740184, "pitch": -0.01453113901385385, "roll": 0.031909107767434546, "date": null, "elevation": 37.18073654174805, "links": []}, "direction": 3.05518958781548}, {"pano": {"id": "F18ty6HhIZYwJ20VFQeA5A", "lat": 52.5098034105991, "lon": 13.37654743452063, "heading": 3.0380319061765357, "pitch": -0.003411908830555016, "roll": 0.021546229897880423, "date": null, "elevation": 36.93753433227539, "links": []}, "direction": 6.19723657668724}]}
{"id": "qpZtFw-HCFv0_zOHDBKSqQ", "lat": 52.50948578993367, "lon": 13.3763455935944, "heading": 4.836973254075251, "pitch": 0.04481687324634396, "roll": 0.013072315544762689, "date": "2023-09", "elevation": 36.76909255981445, "links": [{"pano": {"id": "FAm81RQeVtcpkPXEs91ZDg", "lat": 52.50948080563293, "lon": 13.37620139711085, "heading": 4.549515374437623, "pitch": 0.04777298205633191, "roll": 0.026673509914879902, "date": null, "elevation": 36.77577972412109, "links": []}, "direction": 4.621954421352215}, {"pano": {"id": "CeGkP_AFu2nAdhMrVfb6KA", "lat": 52.50956644133336, "lon": 13.37657838973545, "heading": 3.0595310730245275, "pitch": -0.013636183729532724, "roll": 0.02568184027109686, "date": null, "elevation": 37.13814544677734, "links": []}, "direction": 1.2052802635006656}]}
{"id": "6XR8rkB8jYadnqCbH1g4xw", "lat": 52.50930658292384, "lon": 13.37697821685007, "heading": 0.824641706272529, "pitch": 0.11969271255835777, "roll": 0.06521500191472361, "date": "2022-07", "elevation": 36.4755859375, "links": [{"pano": {"id": "AJ09AzTsdSDmy8mAzEzCWg", "lat": 52.50939704303887, "lon": 13.37699644428606, "heading": 6.071555613259786, "pitch": 0.07491964831194561, "roll": 0.1069977482147079, "date": null, "elevation": 36.35837173461914, "links": []}, "direction": 0.6949853757068849}, {"pano": {"id": "Tlzx-5aO1jonSs4oykZ7Ew", "lat": 52.50921369255106, "lon": 13.37697826607456, "heading": 5.984281161176799, "pitch": 0.12272085987583237, "roll": 0.04915894102187958, "date": null, "elevation": 36.52212142944336, "links": []}, "direction": 3.1363270514824877}]}
